,X,Y,Name,description,altitudeMode,City,VistaIPCC,Vista_ID,VistaDate,Longitude,Source,State,FID,Latitude,VistaName,VistaSType,Field_1
0,-117.069169034823,33.8849076176925,M & H Transport Inc,,clampToGround,MORENO VALLEY,3A1 &amp; 3A2 Enteric Fermentation and Manure Management,DAF001764,11/10/2019,-117.069169,RAFIQ,CA,0,33.884908,M &amp; H Transport Inc,Dairy,M &amp; H Transport Inc
1,-119.315396164801,35.4688760928574,Dairy Name Unknown,,clampToGround,SHAFTER,3A1 &amp; 3A2 Enteric Fermentation and Manure Management,DAF001802,11/10/2019,-119.315396,RAFIQ,CA,1,35.468876,Dairy Name Unknown,Dairy,Dairy Name Unknown
2,-120.731059304243,37.6279470698015,Dairy Name Unknown,,clampToGround,HICKMAN,3A1 &amp; 3A2 Enteric Fermentation and Manure Management,DAF001834,11/10/2019,-120.731059,RAFIQ,CA,2,37.627947,Dairy Name Unknown,Dairy,Dairy Name Unknown
3,-120.85552393668,37.6768342189241,Dairy Name Unknown,,clampToGround,Modesto,3A1 &amp; 3A2 Enteric Fermentation and Manure Management,DAF001835,11/10/2019,-120.855524,RAFIQ,CA,3,37.676834,Dairy Name Unknown,Dairy,Dairy Name Unknown
4,-120.833077636324,37.7002629737573,Dairy Name Unknown,,clampToGround,OAKDALE,3A1 &amp; 3A2 Enteric Fermentation and Manure Management,DAF001836,11/10/2019,-120.833078,RAFIQ,CA,4,37.700263,Dairy Name Unknown,Dairy,Dairy Name Unknown
5,-120.599652007234,37.729490072409,Dairy Name Unknown,,clampToGround,WATERFORD,3A1 &amp; 3A2 Enteric Fermentation and Manure Management,DAF001837,11/10/2019,-120.599652,RAFIQ,CA,5,37.72949,Dairy Name Unknown,Dairy,Dairy Name Unknown
6,-120.878468217734,37.7267122932378,Dairy Name Unknown,,clampToGround,Oakdale,3A1 &amp; 3A2 Enteric Fermentation and Manure Management,DAF001838,11/10/2019,-120.878468,RAFIQ,CA,6,37.726712,Dairy Name Unknown,Dairy,Dairy Name Unknown
7,-117.018060553951,33.771745640449,Dairy Name Unknown,,clampToGround,HEMET,3A1 &amp; 3A2 Enteric Fermentation and Manure Management,DAF001839,11/10/2019,-117.018061,RAFIQ,CA,7,33.771746,Dairy Name Unknown,Dairy,Dairy Name Unknown
8,-121.01567985614,37.463050758186,Dairy Name Unknown,,clampToGround,CROWS LANDING,3A1 &amp; 3A2 Enteric Fermentation and Manure Management,DAF001841,11/10/2019,-121.01568,RAFIQ,CA,8,37.463051,Dairy Name Unknown,Dairy,Dairy Name Unknown
9,-121.068817757933,37.5247289836557,Dairy Name Unknown,,clampToGround,MODESTO,3A1 &amp; 3A2 Enteric Fermentation and Manure Management,DAF001842,11/10/2019,-121.068818,RAFIQ,CA,9,37.524729,Dairy Name Unknown,Dairy,Dairy Name Unknown
10,-121.142616615165,37.6917478337956,Dairy Name Unknown,,clampToGround,MODESTO,3A1 &amp; 3A2 Enteric Fermentation and Manure Management,DAF001843,11/10/2019,-121.142617,RAFIQ,CA,10,37.691748,Dairy Name Unknown,Dairy,Dairy Name Unknown
11,-121.21296365315,37.7100239247644,Dairy Name Unknown,,clampToGround,MANTECA,3A1 &amp; 3A2 Enteric Fermentation and Manure Management,DAF001844,11/10/2019,-121.212964,RAFIQ,CA,11,37.710024,Dairy Name Unknown,Dairy,Dairy Name Unknown
12,-121.070219650816,37.7584957966437,Dairy Name Unknown,,clampToGround,RIPON,3A1 &amp; 3A2 Enteric Fermentation and Manure Management,DAF001845,11/10/2019,-121.07022,RAFIQ,CA,12,37.758496,Dairy Name Unknown,Dairy,Dairy Name Unknown
13,-121.518215445087,37.767491501032,Dairy Name Unknown,,clampToGround,TRACY,3A1 &amp; 3A2 Enteric Fermentation and Manure Management,DAF001846,11/10/2019,-121.518215,RAFIQ,CA,13,37.767492,Dairy Name Unknown,Dairy,Dairy Name Unknown
14,-121.381455319407,38.1774587988845,Dairy Name Unknown,,clampToGround,LODI,3A1 &amp; 3A2 Enteric Fermentation and Manure Management,DAF001849,11/10/2019,-121.381455,RAFIQ,CA,14,38.177459,Dairy Name Unknown,Dairy,Dairy Name Unknown
15,-121.056870844614,37.9058541466516,Dairy Name Unknown,,clampToGround,STOCKTON,3A1 &amp; 3A2 Enteric Fermentation and Manure Management,DAF001850,11/10/2019,-121.056871,RAFIQ,CA,15,37.905854,Dairy Name Unknown,Dairy,Dairy Name Unknown
16,-120.981606772335,37.8345139936259,Dairy Name Unknown,,clampToGround,ESCALON,3A1 &amp; 3A2 Enteric Fermentation and Manure Management,DAF001851,11/10/2019,-120.981607,RAFIQ,CA,16,37.834514,Dairy Name Unknown,Dairy,Dairy Name Unknown
17,-120.939994087257,37.8616431259296,Dairy Name Unknown,,clampToGround,FARMINGTON,3A1 &amp; 3A2 Enteric Fermentation and Manure Management,DAF001852,11/10/2019,-120.939994,RAFIQ,CA,17,37.861643,Dairy Name Unknown,Dairy,Dairy Name Unknown
18,-120.938502882702,37.8965448028005,Dairy Name Unknown,,clampToGround,FARMINGTON,3A1 &amp; 3A2 Enteric Fermentation and Manure Management,DAF001853,11/10/2019,-120.938503,RAFIQ,CA,18,37.896545,Dairy Name Unknown,Dairy,Dairy Name Unknown
19,-120.882207076296,37.847648419439,Clover Knolls Dairy Inc,,clampToGround,OAKDALE,3A1 &amp; 3A2 Enteric Fermentation and Manure Management,DAF001854,11/10/2019,-120.882207,RAFIQ,CA,19,37.847648,Clover Knolls Dairy Inc,Dairy,Clover Knolls Dairy Inc
20,-122.134912982748,38.9761635612994,Dairy Name Unknown,,clampToGround,ARBUCKLE,3A1 &amp; 3A2 Enteric Fermentation and Manure Management,DAF001857,11/10/2019,-122.134913,RAFIQ,CA,20,38.976164,Dairy Name Unknown,Dairy,Dairy Name Unknown
21,-122.281528299391,39.6917472200582,Dairy Name Unknown,,clampToGround,Orland,3A1 &amp; 3A2 Enteric Fermentation and Manure Management,DAF001859,11/10/2019,-122.281528,RAFIQ,CA,21,39.691747,Dairy Name Unknown,Dairy,Dairy Name Unknown
22,-121.280897497122,38.9185198267287,Dairy Name Unknown,,clampToGround,LINCOLN,3A1 &amp; 3A2 Enteric Fermentation and Manure Management,DAF001867,11/10/2019,-121.280897,RAFIQ,CA,22,38.91852,Dairy Name Unknown,Dairy,Dairy Name Unknown
23,-121.11424320426,37.5199542041233,Dairy Name Unknown,,clampToGround,PATTERSON,3A1 &amp; 3A2 Enteric Fermentation and Manure Management,DAF001868,11/10/2019,-121.114243,RAFIQ,CA,23,37.519954,Dairy Name Unknown,Dairy,Dairy Name Unknown
24,-122.169853005812,38.1011068248201,Dairy Name Unknown,,clampToGround,VALLEJO,3A1 &amp; 3A2 Enteric Fermentation and Manure Management,DAF001869,11/10/2019,-122.169853,RAFIQ,CA,24,38.101107,Dairy Name Unknown,Dairy,Dairy Name Unknown
25,-122.538373374432,38.2444301677181,Dairy Name Unknown,,clampToGround,PETALUMA,3A1 &amp; 3A2 Enteric Fermentation and Manure Management,DAF001870,11/10/2019,-122.538373,RAFIQ,CA,25,38.24443,Dairy Name Unknown,Dairy,Dairy Name Unknown
26,-122.800535218026,38.0637692370607,Dairy Name Unknown,,clampToGround,NICASIO,3A1 &amp; 3A2 Enteric Fermentation and Manure Management,DAF001871,11/10/2019,-122.800535,RAFIQ,CA,26,38.063769,Dairy Name Unknown,Dairy,Dairy Name Unknown
27,-117.128589641798,34.9052152257021,Dairy Name Unknown,,clampToGround,HINKLEY,3A1 &amp; 3A2 Enteric Fermentation and Manure Management,DAF001874,11/10/2019,-117.12859,RAFIQ,CA,27,34.905215,Dairy Name Unknown,Dairy,Dairy Name Unknown
28,-117.138754347935,34.9128954080966,Dairy Name Unknown,,clampToGround,HINKLEY,3A1 &amp; 3A2 Enteric Fermentation and Manure Management,DAF001875,11/10/2019,-117.138754,RAFIQ,CA,28,34.912895,Dairy Name Unknown,Dairy,Dairy Name Unknown
29,-117.151102260861,34.9015233693081,Dairy Name Unknown,,clampToGround,HINKLEY,3A1 &amp; 3A2 Enteric Fermentation and Manure Management,DAF001876,11/10/2019,-117.151102,RAFIQ,CA,29,34.901523,Dairy Name Unknown,Dairy,Dairy Name Unknown
30,-117.581574920646,34.5764657189179,Dairy Name Unknown,,clampToGround,ADELANTO,3A1 &amp; 3A2 Enteric Fermentation and Manure Management,DAF001877,11/10/2019,-117.581575,RAFIQ,CA,30,34.576466,Dairy Name Unknown,Dairy,Dairy Name Unknown
31,-120.986243398914,37.3537797922037,Dairy Name Unknown,,clampToGround,NEWMAN,3A1 &amp; 3A2 Enteric Fermentation and Manure Management,DAF001881,11/10/2019,-120.986243,RAFIQ,CA,31,37.35378,Dairy Name Unknown,Dairy,Dairy Name Unknown
32,-120.744757083373,37.5580560447507,Dairy Name Unknown,,clampToGround,Denair,3A1 &amp; 3A2 Enteric Fermentation and Manure Management,DAF001883,11/10/2019,-120.744757,RAFIQ,CA,32,37.558056,Dairy Name Unknown,Dairy,Dairy Name Unknown
33,-120.646670519829,37.4299947455611,Dairy Name Unknown,,clampToGround,WINTON,3A1 &amp; 3A2 Enteric Fermentation and Manure Management,DAF001884,11/10/2019,-120.646671,RAFIQ,CA,33,37.429995,Dairy Name Unknown,Dairy,Dairy Name Unknown
34,-116.696302097064,34.8682159017425,Meadowbrook Dairy,,clampToGround,NEWBERRY SPRINGS,3A1 &amp; 3A2 Enteric Fermentation and Manure Management,DAF001887,11/10/2019,-116.696302,RAFIQ,CA,34,34.868216,Meadowbrook Dairy,Dairy,Meadowbrook Dairy
35,-117.953770491115,34.7446272656359,High Desert Dairy,,clampToGround,LANCASTER,3A1 &amp; 3A2 Enteric Fermentation and Manure Management,DAF001888,11/10/2019,-117.95377,RAFIQ,CA,35,34.744627,High Desert Dairy,Dairy,High Desert Dairy
36,-120.530184662692,40.3545279726878,Dairy Name Unknown,,clampToGround,SUSANVILLE,3A1 &amp; 3A2 Enteric Fermentation and Manure Management,DAF001889,11/10/2019,-120.530185,RAFIQ,CA,36,40.354528,Dairy Name Unknown,Dairy,Dairy Name Unknown
37,-120.568951285773,40.3763572877587,Dairy Name Unknown,,clampToGround,SUSANVILLE,3A1 &amp; 3A2 Enteric Fermentation and Manure Management,DAF001890,11/10/2019,-120.568951,RAFIQ,CA,37,40.376357,Dairy Name Unknown,Dairy,Dairy Name Unknown
38,-117.540584972918,34.001109458135,Dairy Name Unknown,,clampToGround,MIRA LOMA,3A1 &amp; 3A2 Enteric Fermentation and Manure Management,DAF001891,11/10/2019,-117.540585,RAFIQ,CA,38,34.001109,Dairy Name Unknown,Dairy,Dairy Name Unknown
39,-120.897873501961,37.8132425720871,Dairy Name Unknown,,clampToGround,OAKDALE,3A1 &amp; 3A2 Enteric Fermentation and Manure Management,DAF001893,11/10/2019,-120.897874,RAFIQ,CA,39,37.813243,Dairy Name Unknown,Dairy,Dairy Name Unknown
40,-122.156327621323,39.8496867153697,Dairy Name Unknown,,clampToGround,CORNING,3A1 &amp; 3A2 Enteric Fermentation and Manure Management,DAF001894,11/10/2019,-122.156328,RAFIQ,CA,40,39.849687,Dairy Name Unknown,Dairy,Dairy Name Unknown
41,-122.241227653234,39.7491367882322,Dairy Name Unknown,,clampToGround,ORLAND,3A1 &amp; 3A2 Enteric Fermentation and Manure Management,DAF001895,11/10/2019,-122.241228,RAFIQ,CA,41,39.749137,Dairy Name Unknown,Dairy,Dairy Name Unknown
42,-122.261367906604,39.7563077600951,Dairy Name Unknown,,clampToGround,ORLAND,3A1 &amp; 3A2 Enteric Fermentation and Manure Management,DAF001896,11/10/2019,-122.261368,RAFIQ,CA,42,39.756308,Dairy Name Unknown,Dairy,Dairy Name Unknown
43,-122.047146009281,39.5811429353982,Dairy Name Unknown,,clampToGround,WILLOWS,3A1 &amp; 3A2 Enteric Fermentation and Manure Management,DAF001898,11/10/2019,-122.047146,RAFIQ,CA,43,39.581143,Dairy Name Unknown,Dairy,Dairy Name Unknown
44,-122.014353626619,39.5837521717254,Dairy Name Unknown,,clampToGround,GLENN,3A1 &amp; 3A2 Enteric Fermentation and Manure Management,DAF001899,11/10/2019,-122.014354,RAFIQ,CA,44,39.583752,Dairy Name Unknown,Dairy,Dairy Name Unknown
45,-121.266252263331,38.3379319128276,Dairy Name Unknown,,clampToGround,WILTON,3A1 &amp; 3A2 Enteric Fermentation and Manure Management,DAF001900,11/10/2019,-121.266252,RAFIQ,CA,45,38.337932,Dairy Name Unknown,Dairy,Dairy Name Unknown
46,-121.157896362927,38.2336656668371,Dairy Name Unknown,,clampToGround,GALT,3A1 &amp; 3A2 Enteric Fermentation and Manure Management,DAF001901,11/10/2019,-121.157896,RAFIQ,CA,46,38.233666,Dairy Name Unknown,Dairy,Dairy Name Unknown
47,-122.648630760001,38.3056961601498,Jones Family Dairy,,clampToGround,PENNGROVE,3A1 &amp; 3A2 Enteric Fermentation and Manure Management,DAF001902,11/10/2019,-122.648631,RAFIQ,CA,47,38.305696,Jones Family Dairy,Dairy,Jones Family Dairy
48,-122.641209916904,38.3159709873712,Dairy Name Unknown,,clampToGround,PENNGROVE,3A1 &amp; 3A2 Enteric Fermentation and Manure Management,DAF001903,11/10/2019,-122.64121,RAFIQ,CA,48,38.315971,Dairy Name Unknown,Dairy,Dairy Name Unknown
49,-123.702918207409,38.9471831511815,Stornetta Ranch,,clampToGround,MANCHESTER,3A1 &amp; 3A2 Enteric Fermentation and Manure Management,DAF001904,11/10/2019,-123.702918,RAFIQ,CA,49,38.947183,Stornetta Ranch,Dairy,Stornetta Ranch
50,-123.689887221618,38.9327616201527,Dairy Name Unknown,,clampToGround,POINT ARENA,3A1 &amp; 3A2 Enteric Fermentation and Manure Management,DAF001905,11/10/2019,-123.689887,RAFIQ,CA,50,38.932762,Dairy Name Unknown,Dairy,Dairy Name Unknown
51,-123.693339851153,38.9270489727319,Dairy Name Unknown,,clampToGround,POINT ARENA,3A1 &amp; 3A2 Enteric Fermentation and Manure Management,DAF001906,11/10/2019,-123.69334,RAFIQ,CA,51,38.927049,Dairy Name Unknown,Dairy,Dairy Name Unknown
52,-122.610813275113,38.1817322927112,Dairy Name Unknown,,clampToGround,PETALUMA,3A1 &amp; 3A2 Enteric Fermentation and Manure Management,DAF001907,11/10/2019,-122.610813,RAFIQ,CA,52,38.181732,Dairy Name Unknown,Dairy,Dairy Name Unknown
53,-120.528900241053,41.2375172692066,Dairy Name Unknown,,clampToGround,LIKELY,3A1 &amp; 3A2 Enteric Fermentation and Manure Management,DAF001908,11/10/2019,-120.5289,RAFIQ,CA,53,41.237517,Dairy Name Unknown,Dairy,Dairy Name Unknown
54,-119.317295935859,35.903687386164,Dairy Name Unknown,,clampToGround,EARLIMART,3A1 &amp; 3A2 Enteric Fermentation and Manure Management,DAF001759,11/10/2019,-119.317296,RAFIQ,CA,54,35.903687,Dairy Name Unknown,Dairy,Dairy Name Unknown
55,-119.353143645563,35.7636788193221,Dairy Name Unknown,,clampToGround,DELANO,3A1 &amp; 3A2 Enteric Fermentation and Manure Management,DAF001760,11/10/2019,-119.353144,RAFIQ,CA,55,35.763679,Dairy Name Unknown,Dairy,Dairy Name Unknown
56,-119.562396567348,35.9445809085821,Dairy Name Unknown,,clampToGround,Alpaugh,3A1 &amp; 3A2 Enteric Fermentation and Manure Management,DAF001763,11/10/2019,-119.562397,RAFIQ,CA,56,35.944581,Dairy Name Unknown,Dairy,Dairy Name Unknown
57,-119.497972654115,35.9947615499057,Dairy Name Unknown,,clampToGround,CORCORAN,3A1 &amp; 3A2 Enteric Fermentation and Manure Management,DAF001767,11/10/2019,-119.497973,RAFIQ,CA,57,35.994762,Dairy Name Unknown,Dairy,Dairy Name Unknown
58,-119.433507215585,35.9385660448871,Dairy Name Unknown,,clampToGround,EARLIMART,3A1 &amp; 3A2 Enteric Fermentation and Manure Management,DAF001768,11/10/2019,-119.433507,RAFIQ,CA,58,35.938566,Dairy Name Unknown,Dairy,Dairy Name Unknown
59,-119.551665690319,35.9444726212146,Circle H Dairy,,clampToGround,Alpaugh,3A1 &amp; 3A2 Enteric Fermentation and Manure Management,DAF001771,11/10/2019,-119.551666,RAFIQ,CA,59,35.944473,Circle H Dairy,Dairy,Circle H Dairy
60,-119.570466317167,35.9390925161068,Dairy Name Unknown,,clampToGround,KETTLEMAN CITY,3A1 &amp; 3A2 Enteric Fermentation and Manure Management,DAF001772,11/10/2019,-119.570466,RAFIQ,CA,60,35.939093,Dairy Name Unknown,Dairy,Dairy Name Unknown
61,-119.560789445576,36.1818680808473,Dairy Name Unknown,,clampToGround,HANFORD,3A1 &amp; 3A2 Enteric Fermentation and Manure Management,DAF001776,11/10/2019,-119.560789,RAFIQ,CA,61,36.181868,Dairy Name Unknown,Dairy,Dairy Name Unknown
62,-119.69557291266,36.1644366987947,Rocking Horse Dairy,,clampToGround,Hanford,3A1 &amp; 3A2 Enteric Fermentation and Manure Management,DAF001779,11/10/2019,-119.695573,RAFIQ,CA,62,36.164437,Rocking Horse Dairy,Dairy,Rocking Horse Dairy
63,-119.669562986643,36.163865656275,Dairy Name Unknown,,clampToGround,Corcoran,3A1 &amp; 3A2 Enteric Fermentation and Manure Management,DAF001780,11/10/2019,-119.669563,RAFIQ,CA,63,36.163866,Dairy Name Unknown,Dairy,Dairy Name Unknown
64,-119.458337943341,36.165582676999,Dairy Name Unknown,,clampToGround,TULARE,3A1 &amp; 3A2 Enteric Fermentation and Manure Management,DAF001781,11/10/2019,-119.458338,RAFIQ,CA,64,36.165583,Dairy Name Unknown,Dairy,Dairy Name Unknown
65,-119.220844117662,36.1640121864133,Dairy Name Unknown,,clampToGround,STRATHMORE,3A1 &amp; 3A2 Enteric Fermentation and Manure Management,DAF001782,11/10/2019,-119.220844,RAFIQ,CA,65,36.164012,Dairy Name Unknown,Dairy,Dairy Name Unknown
66,-119.460279695651,36.2651299068198,Pacheco & Associates,,clampToGround,TULARE,3A1 &amp; 3A2 Enteric Fermentation and Manure Management,DAF001783,11/10/2019,-119.46028,RAFIQ,CA,66,36.26513,Pacheco &amp; Associates,Dairy,Pacheco &amp; Associates
67,-119.379605807362,36.2527934467602,Dairy Name Unknown,,clampToGround,TULARE,3A1 &amp; 3A2 Enteric Fermentation and Manure Management,DAF001784,11/10/2019,-119.379606,RAFIQ,CA,67,36.252793,Dairy Name Unknown,Dairy,Dairy Name Unknown
68,-119.483040854951,36.3180608152545,E & M Dairy,,clampToGround,HANFORD,3A1 &amp; 3A2 Enteric Fermentation and Manure Management,DAF001785,11/10/2019,-119.483041,RAFIQ,CA,68,36.318061,E &amp; M Dairy,Dairy,E &amp; M Dairy
69,-119.297852469116,36.281672035636,Dairy Name Unknown,,clampToGround,VISALIA,3A1 &amp; 3A2 Enteric Fermentation and Manure Management,DAF001786,11/10/2019,-119.297852,RAFIQ,CA,69,36.281672,Dairy Name Unknown,Dairy,Dairy Name Unknown
70,-119.741295368187,36.1709220068452,Dairy Name Unknown,,clampToGround,LEMOORE,3A1 &amp; 3A2 Enteric Fermentation and Manure Management,DAF001792,11/10/2019,-119.741295,RAFIQ,CA,70,36.170922,Dairy Name Unknown,Dairy,Dairy Name Unknown
71,-119.444156241717,36.3572009789421,Dairy Name Unknown,,clampToGround,VISALIA,3A1 &amp; 3A2 Enteric Fermentation and Manure Management,DAF001793,11/10/2019,-119.444156,RAFIQ,CA,71,36.357201,Dairy Name Unknown,Dairy,Dairy Name Unknown
72,-119.709964884772,36.3367986136652,Dairy Name Unknown,,clampToGround,HANFORD,3A1 &amp; 3A2 Enteric Fermentation and Manure Management,DAF001794,11/10/2019,-119.709965,RAFIQ,CA,72,36.336799,Dairy Name Unknown,Dairy,Dairy Name Unknown
73,-119.761324943791,36.336235930344,Dairy Name Unknown,,clampToGround,LEMOORE,3A1 &amp; 3A2 Enteric Fermentation and Manure Management,DAF001795,11/10/2019,-119.761325,RAFIQ,CA,73,36.336236,Dairy Name Unknown,Dairy,Dairy Name Unknown
74,-119.814468394401,36.3738450989722,Dairy Name Unknown,,clampToGround,LEMOORE,3A1 &amp; 3A2 Enteric Fermentation and Manure Management,DAF001796,11/10/2019,-119.814468,RAFIQ,CA,74,36.373845,Dairy Name Unknown,Dairy,Dairy Name Unknown
75,-119.764587122997,36.3554001144238,Dairy Name Unknown,,clampToGround,LEMOORE,3A1 &amp; 3A2 Enteric Fermentation and Manure Management,DAF001798,11/10/2019,-119.764587,RAFIQ,CA,75,36.3554,Dairy Name Unknown,Dairy,Dairy Name Unknown
76,-119.698675608792,36.376337025933,Dairy Name Unknown,,clampToGround,Hanford,3A1 &amp; 3A2 Enteric Fermentation and Manure Management,DAF001799,11/10/2019,-119.698676,RAFIQ,CA,76,36.376337,Dairy Name Unknown,Dairy,Dairy Name Unknown
77,-119.435948985557,36.4172305582437,Rijlaarsdam Ranch,,clampToGround,Traver,3A1 &amp; 3A2 Enteric Fermentation and Manure Management,DAF001800,11/10/2019,-119.435949,RAFIQ,CA,77,36.417231,Rijlaarsdam Ranch,Dairy,Rijlaarsdam Ranch
78,-119.498347156096,36.4327448357056,Dairy Name Unknown,,clampToGround,KINGSBURG,3A1 &amp; 3A2 Enteric Fermentation and Manure Management,DAF001801,11/10/2019,-119.498347,RAFIQ,CA,78,36.432745,Dairy Name Unknown,Dairy,Dairy Name Unknown
79,-119.523662767722,35.9912221429876,Dairy Name Unknown,,clampToGround,CORCORAN,3A1 &amp; 3A2 Enteric Fermentation and Manure Management,DAF001803,11/10/2019,-119.523663,RAFIQ,CA,79,35.991222,Dairy Name Unknown,Dairy,Dairy Name Unknown
80,-119.649571592655,36.4260000192855,Dairy Name Unknown,,clampToGround,LATON,3A1 &amp; 3A2 Enteric Fermentation and Manure Management,DAF001804,11/10/2019,-119.649572,RAFIQ,CA,80,36.426,Dairy Name Unknown,Dairy,Dairy Name Unknown
81,-119.625476626345,36.5015409658429,Dairy Name Unknown,,clampToGround,SELMA,3A1 &amp; 3A2 Enteric Fermentation and Manure Management,DAF001805,11/10/2019,-119.625477,RAFIQ,CA,81,36.501541,Dairy Name Unknown,Dairy,Dairy Name Unknown
82,-119.82895473957,36.490418926892,Dairy Name Unknown,,clampToGround,CARUTHERS,3A1 &amp; 3A2 Enteric Fermentation and Manure Management,DAF001806,11/10/2019,-119.828955,RAFIQ,CA,82,36.490419,Dairy Name Unknown,Dairy,Dairy Name Unknown
83,-120.04495175472,36.4831424195871,VanderKooi Dairy,,clampToGround,Burrel,3A1 &amp; 3A2 Enteric Fermentation and Manure Management,DAF000271,11/10/2019,-120.044952,SJAPCD,CA,83,36.483142,VanderKooi Dairy,Dairy,VanderKooi Dairy
84,-120.057722527972,36.5850920821339,Lone Oak Farms 2,,clampToGround,HURON,3A1 &amp; 3A2 Enteric Fermentation and Manure Management,DAF001809,11/10/2019,-120.057723,RAFIQ,CA,84,36.585092,Lone Oak Farms 2,Dairy,Lone Oak Farms 2
85,-120.245673461161,36.7375236903661,Dairy Name Unknown,,clampToGround,KERMAN,3A1 &amp; 3A2 Enteric Fermentation and Manure Management,DAF001810,11/10/2019,-120.245673,RAFIQ,CA,85,36.737524,Dairy Name Unknown,Dairy,Dairy Name Unknown
86,-120.237861718743,36.7231935016788,Bar 20 Dairy Farms,,clampToGround,TRANQUILLITY,3A1 &amp; 3A2 Enteric Fermentation and Manure Management,DAF001811,11/10/2019,-120.237862,RAFIQ,CA,86,36.723194,Bar 20 Dairy Farms,Dairy,Bar 20 Dairy Farms
87,-120.299444440708,37.0168543103782,Dairy Name Unknown,,clampToGround,CHOWCHILLA,3A1 &amp; 3A2 Enteric Fermentation and Manure Management,DAF001814,11/10/2019,-120.299444,RAFIQ,CA,87,37.016854,Dairy Name Unknown,Dairy,Dairy Name Unknown
88,-120.250371321679,37.0496499539822,Dairy Name Unknown,,clampToGround,CHOWCHILLA,3A1 &amp; 3A2 Enteric Fermentation and Manure Management,DAF001815,11/10/2019,-120.250371,RAFIQ,CA,88,37.04965,Dairy Name Unknown,Dairy,Dairy Name Unknown
89,-120.268016340382,37.0421642760605,Dairy Name Unknown,,clampToGround,CHOWCHILLA,3A1 &amp; 3A2 Enteric Fermentation and Manure Management,DAF001816,11/10/2019,-120.268016,RAFIQ,CA,89,37.042164,Dairy Name Unknown,Dairy,Dairy Name Unknown
90,-120.195395711043,36.9501309988466,Dairy Name Unknown,,clampToGround,MADERA,3A1 &amp; 3A2 Enteric Fermentation and Manure Management,DAF001817,11/10/2019,-120.195396,RAFIQ,CA,90,36.950131,Dairy Name Unknown,Dairy,Dairy Name Unknown
91,-120.014640228364,36.6531108562811,Dairy Name Unknown,,clampToGround,Fresno,3A1 &amp; 3A2 Enteric Fermentation and Manure Management,DAF001818,11/10/2019,-120.01464,RAFIQ,CA,91,36.653111,Dairy Name Unknown,Dairy,Dairy Name Unknown
92,-120.537374746048,37.0836668472472,Dairy Name Unknown,,clampToGround,El Nido,3A1 &amp; 3A2 Enteric Fermentation and Manure Management,DAF001819,11/10/2019,-120.537375,RAFIQ,CA,92,37.083667,Dairy Name Unknown,Dairy,Dairy Name Unknown
93,-120.42389178278,37.1183056702705,Dairy Name Unknown,,clampToGround,CHOWCHILLA,3A1 &amp; 3A2 Enteric Fermentation and Manure Management,DAF001820,11/10/2019,-120.423892,RAFIQ,CA,93,37.118306,Dairy Name Unknown,Dairy,Dairy Name Unknown
94,-120.580790277749,37.198432438906,Favier Ranch,,clampToGround,MERCED,3A1 &amp; 3A2 Enteric Fermentation and Manure Management,DAF001822,11/10/2019,-120.58079,RAFIQ,CA,94,37.198432,Favier Ranch,Dairy,Favier Ranch
95,-120.901962943235,37.3376261902965,Dairy Name Unknown,,clampToGround,STEVINSON,3A1 &amp; 3A2 Enteric Fermentation and Manure Management,DAF001824,11/10/2019,-120.901963,RAFIQ,CA,95,37.337626,Dairy Name Unknown,Dairy,Dairy Name Unknown
96,-120.895447381092,37.3342902468974,Dairy Name Unknown,,clampToGround,STEVINSON,3A1 &amp; 3A2 Enteric Fermentation and Manure Management,DAF001825,11/10/2019,-120.895447,RAFIQ,CA,96,37.33429,Dairy Name Unknown,Dairy,Dairy Name Unknown
97,-120.736041610432,37.097740228229,Dairy Name Unknown,,clampToGround,DOS PALOS,3A1 &amp; 3A2 Enteric Fermentation and Manure Management,DAF001828,11/10/2019,-120.736042,RAFIQ,CA,97,37.09774,Dairy Name Unknown,Dairy,Dairy Name Unknown
98,-119.938814664365,36.4588221227428,Dairy Name Unknown,,clampToGround,RIVERDALE,3A1 &amp; 3A2 Enteric Fermentation and Manure Management,DAF001829,11/10/2019,-119.938815,RAFIQ,CA,98,36.458822,Dairy Name Unknown,Dairy,Dairy Name Unknown
99,-120.150354873279,36.3973371795672,Tule River Ranch,,clampToGround,HURON,3A1 &amp; 3A2 Enteric Fermentation and Manure Management,DAF001830,11/10/2019,-120.150355,RAFIQ,CA,99,36.397337,Tule River Ranch,Dairy,Tule River Ranch
100,-119.934958303083,36.106188572145,Dairy Name Unknown,,clampToGround,KETTLEMAN CITY,3A1 &amp; 3A2 Enteric Fermentation and Manure Management,DAF001831,11/10/2019,-119.934958,RAFIQ,CA,100,36.106189,Dairy Name Unknown,Dairy,Dairy Name Unknown
101,-120.335879669411,37.2628685937107,Dairy Name Unknown,,clampToGround,LE GRAND,3A1 &amp; 3A2 Enteric Fermentation and Manure Management,DAF001862,11/10/2019,-120.33588,RAFIQ,CA,101,37.262869,Dairy Name Unknown,Dairy,Dairy Name Unknown
102,-120.351317489211,37.0962685722369,Dairy Name Unknown,,clampToGround,CHOWCHILLA,3A1 &amp; 3A2 Enteric Fermentation and Manure Management,DAF001864,11/10/2019,-120.351317,RAFIQ,CA,102,37.096269,Dairy Name Unknown,Dairy,Dairy Name Unknown
103,-120.445022130367,37.1259631285956,Dairy Name Unknown,,clampToGround,EL NIDO,3A1 &amp; 3A2 Enteric Fermentation and Manure Management,DAF001866,11/10/2019,-120.445022,RAFIQ,CA,103,37.125963,Dairy Name Unknown,Dairy,Dairy Name Unknown
104,-119.173425593816,36.134926407228,Dairy Name Unknown,,clampToGround,STRATHMORE,3A1 &amp; 3A2 Enteric Fermentation and Manure Management,DAF001878,11/10/2019,-119.173426,RAFIQ,CA,104,36.134926,Dairy Name Unknown,Dairy,Dairy Name Unknown
105,-120.890755081981,37.0614597170923,Dairy Name Unknown,,clampToGround,Los Banos,3A1 &amp; 3A2 Enteric Fermentation and Manure Management,DAF001879,11/10/2019,-120.890755,RAFIQ,CA,105,37.06146,Dairy Name Unknown,Dairy,Dairy Name Unknown
106,-120.835843281842,36.9734557102129,Dairy Name Unknown,,clampToGround,LOS BANOS,3A1 &amp; 3A2 Enteric Fermentation and Manure Management,DAF001880,11/10/2019,-120.835843,RAFIQ,CA,106,36.973456,Dairy Name Unknown,Dairy,Dairy Name Unknown
107,-120.46260294467,37.2791508013684,Dairy Name Unknown,,clampToGround,MERCED,3A1 &amp; 3A2 Enteric Fermentation and Manure Management,DAF001885,11/10/2019,-120.462603,RAFIQ,CA,107,37.279151,Dairy Name Unknown,Dairy,Dairy Name Unknown
108,-120.922588760328,37.45181233028,3A Teixeira Dairy,,clampToGround,Merced,3A1 &amp; 3A2 Enteric Fermentation and Manure Management,DAF000003,11/10/2019,-120.922589,RWQCB,CA,108,37.451812,3A Teixeira Dairy,Dairy,3A Teixeira Dairy
109,-120.863468287975,37.3465464145787,3D Dores Dairy,,clampToGround,Stevinson,3A1 &amp; 3A2 Enteric Fermentation and Manure Management,DAF000004,11/10/2019,-120.863468,RWQCB,CA,109,37.346546,3D Dores Dairy,Dairy,3D Dores Dairy
110,-117.601509083726,33.9999238063063,4-H Calf Ranch,,clampToGround,Ontario,3A1 &amp; 3A2 Enteric Fermentation and Manure Management,DAF000008,11/10/2019,-117.601509,CIWQS,CA,110,33.999924,4-H Calf Ranch,Dairy,4-H Calf Ranch
111,-120.954079195634,37.3736480925946,6 D DORES DAIRY,,clampToGround,HILMAR,3A1 &amp; 3A2 Enteric Fermentation and Manure Management,DAF000012,11/10/2019,-120.954079,SJAPCD,CA,111,37.373648,6 D DORES DAIRY,Dairy,6 D DORES DAIRY
112,-120.859406961055,37.7434116159855,6-X #2 (Formerly G&G Dairy LLC),,clampToGround,Oakdale,3A1 &amp; 3A2 Enteric Fermentation and Manure Management,DAF000013,11/10/2019,-120.859407,RWQCB,CA,112,37.743412,6-X #2 (Formerly G&amp;G Dairy LLC),Dairy,6-X #2 (Formerly G&amp;G Dairy LLC)
113,-120.814308223387,37.6797829853306,6-X Dairy,,clampToGround,Modesto,3A1 &amp; 3A2 Enteric Fermentation and Manure Management,DAF000014,11/10/2019,-120.814308,RWQCB,CA,113,37.679783,6-X Dairy,Dairy,6-X Dairy
114,-120.85317735638,37.3434721488784,A & A DAIRY,,clampToGround,STEVINSON,3A1 &amp; 3A2 Enteric Fermentation and Manure Management,DAF000015,11/10/2019,-120.853177,SJAPCD,CA,114,37.343472,A &amp; A DAIRY,Dairy,A &amp; A DAIRY
115,-120.96844681996,37.4835727585398,A & C VIEIRA DAIRY,,clampToGround,TURLOCK,3A1 &amp; 3A2 Enteric Fermentation and Manure Management,DAF000016,11/10/2019,-120.968447,SJAPCD,CA,115,37.483573,A &amp; C VIEIRA DAIRY,Dairy,A &amp; C VIEIRA DAIRY
116,-120.931833061308,37.4967584756574,A & G AZEVEDO DAIRY,,clampToGround,TURLOCK,3A1 &amp; 3A2 Enteric Fermentation and Manure Management,DAF000017,11/10/2019,-120.931833,SJAPCD,CA,116,37.496758,A &amp; G AZEVEDO DAIRY,Dairy,A &amp; G AZEVEDO DAIRY
117,-121.092614174665,37.5509220414726,A & M Azevedo Dairy,,clampToGround,Modesto,3A1 &amp; 3A2 Enteric Fermentation and Manure Management,DAF000019,11/10/2019,-121.092614,RWQCB,CA,117,37.550922,A &amp; M Azevedo Dairy,Dairy,A &amp; M Azevedo Dairy
118,-120.955960507428,37.464949887016,A & M de Sousa Dairy,,clampToGround,Turlock,3A1 &amp; 3A2 Enteric Fermentation and Manure Management,DAF000020,11/10/2019,-120.955961,RWQCB,CA,118,37.46495,A &amp; M de Sousa Dairy,Dairy,A &amp; M de Sousa Dairy
119,-120.865060170447,37.3633140737963,A & M TEIXEIRA,,clampToGround,HILMAR,3A1 &amp; 3A2 Enteric Fermentation and Manure Management,DAF000022,11/10/2019,-120.86506,SJAPCD,CA,119,37.363314,A &amp; M TEIXEIRA,Dairy,A &amp; M TEIXEIRA
120,-121.010578883853,37.4331688040686,A. Vitoria Dairy,,clampToGround,Crowslanding,3A1 &amp; 3A2 Enteric Fermentation and Manure Management,DAF000025,11/10/2019,-121.010579,RWQCB,CA,121,37.433169,A. Vitoria Dairy,Dairy,A. Vitoria Dairy
121,-122.675502936929,38.2111315986738,Achadinha Cheese Company Inc.,,clampToGround,Petaluma,3A1 &amp; 3A2 Enteric Fermentation and Manure Management,DAF000031,11/10/2019,-122.675503,CIWQS,CA,122,38.211132,Achadinha Cheese Company Inc.,Dairy,Achadinha Cheese Company Inc.
122,-120.954624192854,37.5375589096071,Ackerman Dairy Inc,,clampToGround,Ceres,3A1 &amp; 3A2 Enteric Fermentation and Manure Management,DAF000032,11/10/2019,-120.954624,RWQCB,CA,123,37.537559,Ackerman Dairy Inc,Dairy,Ackerman Dairy Inc
123,-119.202016779381,35.4164172515963,"Affentranger & Sons Dairy Farms, Inc.",,clampToGround,Bakersfield,3A1 &amp; 3A2 Enteric Fermentation and Manure Management,DAF000035,11/10/2019,-119.202017,RWQCB,CA,124,35.416417,"Affentranger &amp; Sons Dairy Farms, Inc.",Dairy,"Affentranger &amp; Sons Dairy Farms, Inc."
124,-122.825826404795,38.4401446039321,Aggio Dairy Inc.,,clampToGround,Santa Rosa,3A1 &amp; 3A2 Enteric Fermentation and Manure Management,DAF000036,11/10/2019,-122.825826,SJAPCD,CA,125,38.440145,Aggio Dairy Inc.,Dairy,Aggio Dairy Inc.
125,-120.99275599959,37.4880219996156,Aguiar & Bento Dairy,,clampToGround,Crows Landing,3A1 &amp; 3A2 Enteric Fermentation and Manure Management,DAF000037,11/10/2019,-120.992756,CIWQS R5,CA,126,37.488022,Aguiar &amp; Bento Dairy,Dairy,Aguiar &amp; Bento Dairy
126,-121.005665999586,37.4877159998935,Ahlem Farms Jerseys,,clampToGround,Crows Landing,3A1 &amp; 3A2 Enteric Fermentation and Manure Management,DAF000038,11/10/2019,-121.005666,CIWQS R5,CA,127,37.487716,Ahlem Farms Jerseys,Dairy,Ahlem Farms Jerseys
127,-120.925871489904,37.411183577132,AHLEM FARMS PARTNERSHIP,,clampToGround,HILMAR,3A1 &amp; 3A2 Enteric Fermentation and Manure Management,DAF000039,11/10/2019,-120.925871,SJAPCD,CA,128,37.411184,AHLEM FARMS PARTNERSHIP,Dairy,AHLEM FARMS PARTNERSHIP
128,-120.777142000303,37.5381479999303,Ahlem Farms Vista,,clampToGround,Denair,3A1 &amp; 3A2 Enteric Fermentation and Manure Management,DAF000040,11/10/2019,-120.777142,RWQCB,CA,129,37.538148,Ahlem Farms Vista,Dairy,Ahlem Farms Vista
129,-120.666751999805,37.5270580002266,Ahlem Foothill Farms,,clampToGround,Denair,3A1 &amp; 3A2 Enteric Fermentation and Manure Management,DAF000042,11/10/2019,-120.666752,RWQCB,CA,131,37.527058,Ahlem Foothill Farms,Dairy,Ahlem Foothill Farms
130,-120.924983223538,37.4094300157399,Ahlem west #2 Former Antonio Silveira Dairy,,clampToGround,Hilmar,3A1 &amp; 3A2 Enteric Fermentation and Manure Management,DAF000043,11/10/2019,-120.924983,RWQCB,CA,132,37.40943,Ahlem west #2 Former Antonio Silveira Dairy,Dairy,Ahlem west #2 Former Antonio Silveira Dairy
131,-120.947764000408,37.377270999557,AJ Borba Holsteins,,clampToGround,Hilmar,3A1 &amp; 3A2 Enteric Fermentation and Manure Management,DAF000045,11/10/2019,-120.947764,RWQCB,CA,133,37.377271,AJ Borba Holsteins,Dairy,AJ Borba Holsteins
132,-119.319242000418,35.3594370004173,AJB Ranch Dairy,,clampToGround,Bakersfield,3A1 &amp; 3A2 Enteric Fermentation and Manure Management,DAF000047,11/10/2019,-119.319242,RWQCB,CA,134,35.359437,AJB Ranch Dairy,Dairy,AJB Ranch Dairy
133,-121.015299422803,37.5039972199377,ALAMO DAIRY,,clampToGround,CROWS LANDING,3A1 &amp; 3A2 Enteric Fermentation and Manure Management,DAF000049,11/10/2019,-121.015299,SJAPCD,CA,135,37.503997,ALAMO DAIRY,Dairy,ALAMO DAIRY
134,-121.087233558299,37.5458138608266,ALAMO FARMS,,clampToGround,MODESTO,3A1 &amp; 3A2 Enteric Fermentation and Manure Management,DAF000050,11/10/2019,-121.087234,SJAPCD,CA,136,37.545814,ALAMO FARMS,Dairy,ALAMO FARMS
135,-117.102973554345,33.8429444729314,Albert Goyenetche Dairy #2,,clampToGround,Lakeview,3A1 &amp; 3A2 Enteric Fermentation and Manure Management,DAF000051,11/10/2019,-117.102974,CIWQS,CA,137,33.842944,Albert Goyenetche Dairy #2,Dairy,Albert Goyenetche Dairy #2
136,-121.009038850338,37.4844058882525,ALBERT MENDES DAIRY,,clampToGround,CROWS LANDING,3A1 &amp; 3A2 Enteric Fermentation and Manure Management,DAF000052,11/10/2019,-121.009039,SJAPCD,CA,138,37.484406,ALBERT MENDES DAIRY,Dairy,ALBERT MENDES DAIRY
137,-120.778538790661,37.6157688722438,Alberto Dairy,,clampToGround,Hickman,3A1 &amp; 3A2 Enteric Fermentation and Manure Management,DAF000053,11/10/2019,-120.778539,CIWQS R5,CA,139,37.615769,Alberto Dairy,Dairy,Alberto Dairy
138,-122.19925028044,40.0629613618522,Alderson Family 4A Dairy (Former Shasta View Farms),,clampToGround,Gerber,3A1 &amp; 3A2 Enteric Fermentation and Manure Management,DAF000056,11/10/2019,-122.19925,CIWQS R5,CA,141,40.062961,Alderson Family 4A Dairy (Former Shasta View Farms),Dairy,Alderson Family 4A Dairy (Former Shasta View Farms)
139,-120.961744127185,37.7172181472742,Alexander Dairy,,clampToGround,Modesto,3A1 &amp; 3A2 Enteric Fermentation and Manure Management,DAF000057,11/10/2019,-120.961744,RWQCB,CA,142,37.717218,Alexander Dairy,Dairy,Alexander Dairy
140,-124.232626222159,40.6004821847989,Alexandre Acres,,clampToGround,Ferndale,3A1 &amp; 3A2 Enteric Fermentation and Manure Management,DAF000058,11/10/2019,-124.232626,CIWQS,CA,143,40.600482,Alexandre Acres,Dairy,Alexandre Acres
141,-124.17541007541,41.8956375623137,Alexandre Dairy,,clampToGround,Crescent City,3A1 &amp; 3A2 Enteric Fermentation and Manure Management,DAF000059,11/10/2019,-124.17541,CIWQS,CA,144,41.895638,Alexandre Dairy,Dairy,Alexandre Dairy
142,-124.147369300888,41.8984876640271,Alexandre Ecodairy,,clampToGround,Crescent City,3A1 &amp; 3A2 Enteric Fermentation and Manure Management,DAF000060,11/10/2019,-124.147369,CIWQS,CA,145,41.898488,Alexandre Ecodairy,Dairy,Alexandre Ecodairy
143,-120.980459703831,37.4329098384191,ALFRED C. NUNES DAIRY,,clampToGround,TURLOCK,3A1 &amp; 3A2 Enteric Fermentation and Manure Management,DAF000061,11/10/2019,-120.98046,SJAPCD,CA,146,37.43291,ALFRED C. NUNES DAIRY,Dairy,ALFRED C. NUNES DAIRY
144,-122.197289132169,39.7437985332357,Alston Farms Dairy 1,,clampToGround,Orland,3A1 &amp; 3A2 Enteric Fermentation and Manure Management,DAF000063,11/10/2019,-122.197289,CIWQS R5,CA,147,39.743799,Alston Farms Dairy 1,Dairy,Alston Farms Dairy 1
145,-122.179066999942,39.8191840003414,Alston Farms Dairy 2,,clampToGround,Orland,3A1 &amp; 3A2 Enteric Fermentation and Manure Management,DAF000064,11/10/2019,-122.179067,CIWQS R5,CA,148,39.819184,Alston Farms Dairy 2,Dairy,Alston Farms Dairy 2
146,-122.086112803473,39.5914754841561,Alves Dairy,,clampToGround,Glenn,3A1 &amp; 3A2 Enteric Fermentation and Manure Management,DAF000066,11/10/2019,-122.086113,CIWQS R5,CA,149,39.591475,Alves Dairy,Dairy,Alves Dairy
147,-120.934342000183,37.3638809999082,Amaral & Amaral Dairy,,clampToGround,Stevinson,3A1 &amp; 3A2 Enteric Fermentation and Manure Management,DAF000068,11/10/2019,-120.934342,RWQCB,CA,150,37.363881,Amaral &amp; Amaral Dairy,Dairy,Amaral &amp; Amaral Dairy
148,-122.161805999847,39.7742140003759,Amaral Dairy,,clampToGround,Orland,3A1 &amp; 3A2 Enteric Fermentation and Manure Management,DAF000070,11/10/2019,-122.161806,CIWQS R5,CA,151,39.774214,Amaral Dairy,Dairy,Amaral Dairy
149,-120.992393381168,37.5058334432421,Amaral Dairy Farm,,clampToGround,Crowslanding,3A1 &amp; 3A2 Enteric Fermentation and Manure Management,DAF000071,11/10/2019,-120.992393,RWQCB,CA,152,37.505833,Amaral Dairy Farm,Dairy,Amaral Dairy Farm
150,-121.293623000301,38.3764969996369,Americo Machado Dairy,,clampToGround,Wilton,3A1 &amp; 3A2 Enteric Fermentation and Manure Management,DAF000074,11/10/2019,-121.293623,CIWQS R5,CA,153,38.376497,Americo Machado Dairy,Dairy,Americo Machado Dairy
151,-122.801363493043,38.4485270380593,Amos Brothers Dairy,,clampToGround,Santa Rosa,3A1 &amp; 3A2 Enteric Fermentation and Manure Management,DAF000075,11/10/2019,-122.801363,CIWQS,CA,154,38.448527,Amos Brothers Dairy,Dairy,Amos Brothers Dairy
152,-121.178785999774,38.2214049998409,Angelo Dairy,,clampToGround,Acampo,3A1 &amp; 3A2 Enteric Fermentation and Manure Management,DAF000082,11/10/2019,-121.178786,RWQCB,CA,156,38.221405,Angelo Dairy,Dairy,Angelo Dairy
153,-121.922236000191,38.6325159997137,Angelo Vieira Dairy,,clampToGround,Woodland,3A1 &amp; 3A2 Enteric Fermentation and Manure Management,DAF000083,11/10/2019,-121.922236,CIWQS R5,CA,157,38.632516,Angelo Vieira Dairy,Dairy,Angelo Vieira Dairy
154,-118.947631911895,35.2545188871776,Ansonea Dairy,,clampToGround,Bakersfield,3A1 &amp; 3A2 Enteric Fermentation and Manure Management,DAF000086,11/10/2019,-118.947632,RWQCB,CA,158,35.254519,Ansonea Dairy,Dairy,Ansonea Dairy
155,-121.003222712063,37.1581140239922,ANTHONY L LOPES JR DAIRY 2,,clampToGround,GUSTINE,3A1 &amp; 3A2 Enteric Fermentation and Manure Management,DAF000089,11/10/2019,-121.003223,SJAPCD,CA,159,37.158114,ANTHONY L LOPES JR DAIRY 2,Dairy,ANTHONY L LOPES JR DAIRY 2
156,-121.017943607085,37.3342059383191,ANTONE L GOMES & SONS,,clampToGround,NEWMAN,3A1 &amp; 3A2 Enteric Fermentation and Manure Management,DAF000091,11/10/2019,-121.017944,SJAPCD,CA,161,37.334206,ANTONE L GOMES &amp; SONS,Dairy,ANTONE L GOMES &amp; SONS
157,-120.77546608861,37.6161898852415,Antonio & Maria Alberto Dairy,,clampToGround,Hickman,3A1 &amp; 3A2 Enteric Fermentation and Manure Management,DAF000092,11/10/2019,-120.775466,RWQCB,CA,162,37.61619,Antonio &amp; Maria Alberto Dairy,Dairy,Antonio &amp; Maria Alberto Dairy
158,-120.91134548601,37.4846615523897,ANTONIO BRASIL DAIRY,,clampToGround,TURLOCK,3A1 &amp; 3A2 Enteric Fermentation and Manure Management,DAF000096,11/10/2019,-120.911345,SJAPCD,CA,163,37.484662,ANTONIO BRASIL DAIRY,Dairy,ANTONIO BRASIL DAIRY
159,-120.968022144686,37.4625608646929,Arjen Zylstra Dairy,,clampToGround,Turlock,3A1 &amp; 3A2 Enteric Fermentation and Manure Management,DAF000102,11/10/2019,-120.968022,RWQCB,CA,164,37.462561,Arjen Zylstra Dairy,Dairy,Arjen Zylstra Dairy
160,-120.990088999807,37.9429900002883,Armelim Amaral Dairy,,clampToGround,Farmington,3A1 &amp; 3A2 Enteric Fermentation and Manure Management,DAF000104,11/10/2019,-120.990089,CIWQS R5,CA,166,37.94299,Armelim Amaral Dairy,Dairy,Armelim Amaral Dairy
161,-121.14422599963,37.6136610000552,Arnaldo P. & Maria E. Avila Dairy,,clampToGround,Modesto,3A1 &amp; 3A2 Enteric Fermentation and Manure Management,DAF000105,11/10/2019,-121.144226,RWQCB,CA,167,37.613661,Arnaldo P. &amp; Maria E. Avila Dairy,Dairy,Arnaldo P. &amp; Maria E. Avila Dairy
162,-120.992590437508,37.490530080889,Art Silva & Son Dairy,,clampToGround,Crows Landing,3A1 &amp; 3A2 Enteric Fermentation and Manure Management,DAF000106,11/10/2019,-120.99259,RWQCB,CA,168,37.49053,Art Silva &amp; Son Dairy,Dairy,Art Silva &amp; Son Dairy
163,-120.900112099422,37.6849134398373,Art Silva Dairy,,clampToGround,Modesto,3A1 &amp; 3A2 Enteric Fermentation and Manure Management,DAF000107,11/10/2019,-120.900112,CIWQS R5,CA,169,37.684913,Art Silva Dairy,Dairy,Art Silva Dairy
164,-120.994565135085,37.1511629391627,AUGUSTO LIMA / A & L DAIRY,,clampToGround,GUSTINE,3A1 &amp; 3A2 Enteric Fermentation and Manure Management,DAF000111,11/10/2019,-120.994565,SJAPCD,CA,171,37.151163,AUGUSTO LIMA / A &amp; L DAIRY,Dairy,AUGUSTO LIMA / A &amp; L DAIRY
165,-119.373334048808,35.4892598041263,Aukeman Dairy,,clampToGround,Shafter,3A1 &amp; 3A2 Enteric Fermentation and Manure Management,DAF000112,11/10/2019,-119.373334,RWQCB,CA,172,35.48926,Aukeman Dairy,Dairy,Aukeman Dairy
166,-124.263232638456,40.6171068994505,Avelar Brothers Dairy,,clampToGround,Ferndale,3A1 &amp; 3A2 Enteric Fermentation and Manure Management,DAF000115,11/10/2019,-124.263233,CIWQS,CA,173,40.617107,Avelar Brothers Dairy,Dairy,Avelar Brothers Dairy
167,-121.464017006408,38.329667516966,Avis Dairy #2,,clampToGround,Elk Grove,3A1 &amp; 3A2 Enteric Fermentation and Manure Management,DAF000117,11/10/2019,-121.464017,RWQCB,CA,174,38.329668,Avis Dairy #2,Dairy,Avis Dairy #2
168,-121.017768406957,37.5091192128456,Avlan Family Farms #2,,clampToGround,Crows Landing,3A1 &amp; 3A2 Enteric Fermentation and Manure Management,DAF000119,11/10/2019,-121.017768,CIWQS R5,CA,175,37.509119,Avlan Family Farms #2,Dairy,Avlan Family Farms #2
169,-120.875657800954,37.420576670525,AZEVEDO DAIRY,,clampToGround,HILMAR,3A1 &amp; 3A2 Enteric Fermentation and Manure Management,DAF000120,11/10/2019,-120.875658,SJAPCD,CA,176,37.420577,AZEVEDO DAIRY,Dairy,AZEVEDO DAIRY
170,-121.129641631181,37.5153784153757,AZEVEDO DAIRY INC,,clampToGround,PATTERSON,3A1 &amp; 3A2 Enteric Fermentation and Manure Management,DAF000123,11/10/2019,-121.129642,SJAPCD,CA,177,37.515378,AZEVEDO DAIRY INC,Dairy,AZEVEDO DAIRY INC
171,-121.006431999837,37.5238400002159,Azevedo Family Dairy,,clampToGround,Ceres,3A1 &amp; 3A2 Enteric Fermentation and Manure Management,DAF000125,11/10/2019,-121.006432,CIWQS R5,CA,178,37.52384,Azevedo Family Dairy,Dairy,Azevedo Family Dairy
172,-120.890406000237,37.4328739997354,B & D Dairy,,clampToGround,Hilmar,3A1 &amp; 3A2 Enteric Fermentation and Manure Management,DAF000129,11/10/2019,-120.890406,RWQCB,CA,179,37.432874,B &amp; D Dairy,Dairy,B &amp; D Dairy
173,-120.765970999562,37.5444360003212,Ahlem Farms Vista 11 Formerly Silva Family Dairy,,clampToGround,Denair,3A1 &amp; 3A2 Enteric Fermentation and Manure Management,DAF000041,11/10/2019,-120.765971,RWQCB,CA,130,37.544436,Ahlem Farms Vista 11 Formerly Silva Family Dairy,Dairy,Ahlem Farms Vista 11 Formerly Silva Family Dairy
174,-121.32354299961,38.3223330001679,B & J Dairy,,clampToGround,Galt,3A1 &amp; 3A2 Enteric Fermentation and Manure Management,DAF000131,11/10/2019,-121.323543,CIWQS R5,CA,181,38.322333,B &amp; J Dairy,Dairy,B &amp; J Dairy
175,-121.298733983066,38.3825711659077,B&J Dairy #2,,clampToGround,Wilton,3A1 &amp; 3A2 Enteric Fermentation and Manure Management,DAF000134,11/10/2019,-121.298734,RWQCB,CA,182,38.382571,B&amp;J Dairy #2,Dairy,B&amp;J Dairy #2
176,-120.888679714664,37.3732663575464,B-6 DAIRY,,clampToGround,HILMAR,3A1 &amp; 3A2 Enteric Fermentation and Manure Management,DAF000135,11/10/2019,-120.88868,SJAPCD,CA,183,37.373266,B-6 DAIRY,Dairy,B-6 DAIRY
177,-124.239117917278,40.5809732665452,Bancrest Dairy,,clampToGround,Ferndale,3A1 &amp; 3A2 Enteric Fermentation and Manure Management,DAF000138,11/10/2019,-124.239118,CIWQS,CA,184,40.580973,Bancrest Dairy,Dairy,Bancrest Dairy
178,-120.959942314282,37.5058282310085,ALDEN PETERSON & SONS INC,,clampToGround,TURLOCK,3A1 &amp; 3A2 Enteric Fermentation and Manure Management,DAF000054,11/10/2019,-120.959942,SJAPCD,CA,140,37.505828,ALDEN PETERSON &amp; SONS INC,Dairy,ALDEN PETERSON &amp; SONS INC
179,-122.72316549506,38.2654613907095,"Bar M Dairy, INC.",,clampToGround,Petaluma,3A1 &amp; 3A2 Enteric Fermentation and Manure Management,DAF000146,11/10/2019,-122.723165,CIWQS,CA,186,38.265461,"Bar M Dairy, INC.",Dairy,"Bar M Dairy, INC."
180,-124.114205785753,40.8834444689052,"Bar M Ranch, Mason Dairy",,clampToGround,Arcata,3A1 &amp; 3A2 Enteric Fermentation and Manure Management,DAF000148,11/10/2019,-124.114206,CIWQS,CA,187,40.883444,"Bar M Ranch, Mason Dairy",Dairy,"Bar M Ranch, Mason Dairy"
181,-120.991220643688,37.2155500314064,BAR MAC DAIRY,,clampToGround,GUSTINE,3A1 &amp; 3A2 Enteric Fermentation and Manure Management,DAF000149,11/10/2019,-120.991221,SJAPCD,CA,188,37.21555,BAR MAC DAIRY,Dairy,BAR MAC DAIRY
182,-120.909358086937,37.5206162543715,"Bar Vee Dairy, Inc.",,clampToGround,Turlock,3A1 &amp; 3A2 Enteric Fermentation and Manure Management,DAF000151,11/10/2019,-120.909358,RWQCB,CA,189,37.520616,"Bar Vee Dairy, Inc.",Dairy,"Bar Vee Dairy, Inc."
183,-121.055931176458,37.8507921450068,Bartelink Dairy,,clampToGround,Escalon,3A1 &amp; 3A2 Enteric Fermentation and Manure Management,DAF000155,11/10/2019,-121.055931,RWQCB,CA,191,37.850792,Bartelink Dairy,Dairy,Bartelink Dairy
184,-117.642892911791,34.0070099415138,"Batista Bros. Dairy Farm, Inc",,clampToGround,Ontario,3A1 &amp; 3A2 Enteric Fermentation and Manure Management,DAF000156,11/10/2019,-117.642893,CIWQS,CA,192,34.00701,"Batista Bros. Dairy Farm, Inc",Dairy,"Batista Bros. Dairy Farm, Inc"
185,-121.308862724389,38.2776162958354,Bay Meadow Farms,,clampToGround,Galt,3A1 &amp; 3A2 Enteric Fermentation and Manure Management,DAF000157,11/10/2019,-121.308863,CIWQS R5,CA,193,38.277616,Bay Meadow Farms,Dairy,Bay Meadow Farms
186,-119.054489941005,35.2058374459435,Bear Mountain Dairy,,clampToGround,Bakersfield,3A1 &amp; 3A2 Enteric Fermentation and Manure Management,DAF000159,11/10/2019,-119.05449,RWQCB,CA,194,35.205837,Bear Mountain Dairy,Dairy,Bear Mountain Dairy
187,-121.042227000276,37.5235720004475,Andrew Zylstra Dairies 1 and 2,,clampToGround,Modesto,3A1 &amp; 3A2 Enteric Fermentation and Manure Management,DAF000081,11/10/2019,-121.042227,RWQCB,CA,155,37.523572,Andrew Zylstra Dairies 1 and 2,Dairy,Andrew Zylstra Dairies 1 and 2
188,-122.218295808717,39.7103331176223,Bekendam Dairy,,clampToGround,Orland,3A1 &amp; 3A2 Enteric Fermentation and Manure Management,DAF000161,11/10/2019,-122.218296,RWQCB,CA,196,39.710333,Bekendam Dairy,Dairy,Bekendam Dairy
189,-122.099906999808,39.8232810004179,Belo Dairy,,clampToGround,Orland (Capay),3A1 &amp; 3A2 Enteric Fermentation and Manure Management,DAF000163,11/10/2019,-122.099907,CIWQS R5,CA,197,39.823281,Belo Dairy,Dairy,Belo Dairy
190,-119.151506343505,35.2479689996696,Belonave Ranch LLC,,clampToGround,Bakersfield,3A1 &amp; 3A2 Enteric Fermentation and Manure Management,DAF000164,11/10/2019,-119.151506,RWQCB,CA,198,35.247969,Belonave Ranch LLC,Dairy,Belonave Ranch LLC
191,-121.132155264317,37.6349489996966,Bento Dairy,,clampToGround,Modesto,3A1 &amp; 3A2 Enteric Fermentation and Manure Management,DAF000166,11/10/2019,-121.132155,CIWQS R5,CA,199,37.634949,Bento Dairy,Dairy,Bento Dairy
192,-122.773472176176,38.3911151193642,Beretta Dairy,,clampToGround,Santa Rosa,3A1 &amp; 3A2 Enteric Fermentation and Manure Management,DAF000167,11/10/2019,-122.773472,CIWQS,CA,200,38.391115,Beretta Dairy,Dairy,Beretta Dairy
193,-120.8574674971,37.8212408598995,"Bergwerff Farms, Inc.",,clampToGround,Oakdale,3A1 &amp; 3A2 Enteric Fermentation and Manure Management,DAF000168,11/10/2019,-120.857467,RWQCB,CA,201,37.821241,"Bergwerff Farms, Inc.",Dairy,"Bergwerff Farms, Inc."
194,-124.057314847118,40.5331555483441,Bess Dairy,,clampToGround,Carlotta,3A1 &amp; 3A2 Enteric Fermentation and Manure Management,DAF000171,11/10/2019,-124.057315,CIWQS,CA,202,40.533156,Bess Dairy,Dairy,Bess Dairy
195,-120.814297999653,37.412844999697,Bettencourt & Marson Dairy,,clampToGround,Hilmar,3A1 &amp; 3A2 Enteric Fermentation and Manure Management,DAF000173,11/10/2019,-120.814298,RWQCB,CA,203,37.412845,Bettencourt &amp; Marson Dairy,Dairy,Bettencourt &amp; Marson Dairy
196,-121.174702000297,37.8108840001965,Bettencourt and Borges Dairy,,clampToGround,Manteca,3A1 &amp; 3A2 Enteric Fermentation and Manure Management,DAF000174,11/10/2019,-121.174702,RWQCB,CA,204,37.810884,Bettencourt and Borges Dairy,Dairy,Bettencourt and Borges Dairy
197,-119.104665081462,35.1695881408862,Bidart Dairy II,,clampToGround,Bakersfield,3A1 &amp; 3A2 Enteric Fermentation and Manure Management,DAF000177,11/10/2019,-119.104665,RWQCB,CA,206,35.169588,Bidart Dairy II,Dairy,Bidart Dairy II
198,-119.289448999771,35.3577010004009,Bidart Dairy III,,clampToGround,Bakersfield,3A1 &amp; 3A2 Enteric Fermentation and Manure Management,DAF000178,11/10/2019,-119.289449,RWQCB,CA,207,35.357701,Bidart Dairy III,Dairy,Bidart Dairy III
199,-122.907058437207,38.1834729997791,Blakes Landing Farm,,clampToGround,Marshall,3A1 &amp; 3A2 Enteric Fermentation and Manure Management,DAF000182,11/10/2019,-122.907058,CIWQS,CA,208,38.183473,Blakes Landing Farm,Dairy,Blakes Landing Farm
200,-120.912966397983,37.4343279141508,Blue Island Jerseys,,clampToGround,Turlock,3A1 &amp; 3A2 Enteric Fermentation and Manure Management,DAF000183,11/10/2019,-120.912966,RWQCB,CA,209,37.434328,Blue Island Jerseys,Dairy,Blue Island Jerseys
201,-121.001891705588,37.1600461250029,ANTHONY LOPES DAIRY,,clampToGround,GUSTINE,3A1 &amp; 3A2 Enteric Fermentation and Manure Management,DAF000090,11/10/2019,-121.001892,SJAPCD,CA,160,37.160046,ANTHONY LOPES DAIRY,Dairy,ANTHONY LOPES DAIRY
202,-121.091940999577,37.6585909999747,Blue Star Dairy,,clampToGround,Modesto,3A1 &amp; 3A2 Enteric Fermentation and Manure Management,DAF000187,11/10/2019,-121.091941,RWQCB,CA,211,37.658591,Blue Star Dairy,Dairy,Blue Star Dairy
203,-122.104470999837,39.8313759996028,Bob Fumasi Dairy,,clampToGround,Orland,3A1 &amp; 3A2 Enteric Fermentation and Manure Management,DAF000189,11/10/2019,-122.104471,CIWQS R5,CA,212,39.831376,Bob Fumasi Dairy,Dairy,Bob Fumasi Dairy
204,-117.053283346746,33.8326412055174,Boersma Dairy,,clampToGround,San Jacinto,3A1 &amp; 3A2 Enteric Fermentation and Manure Management,DAF000190,11/10/2019,-117.053283,CIWQS,CA,213,33.832641,Boersma Dairy,Dairy,Boersma Dairy
205,-124.229374270213,40.6013058999809,Boldrini Dairy,,clampToGround,Ferndale,3A1 &amp; 3A2 Enteric Fermentation and Manure Management,DAF000191,11/10/2019,-124.229374,CIWQS,CA,214,40.601306,Boldrini Dairy,Dairy,Boldrini Dairy
206,-117.030334948284,33.795709978808,Bootsma Silva Farms,,clampToGround,San Jacinto,3A1 &amp; 3A2 Enteric Fermentation and Manure Management,DAF000193,11/10/2019,-117.030335,CIWQS,CA,216,33.79571,Bootsma Silva Farms,Dairy,Bootsma Silva Farms
207,-121.026511000382,37.5785570000056,Borba & Sons (Formerly PMB Dairy),,clampToGround,Modesto,3A1 &amp; 3A2 Enteric Fermentation and Manure Management,DAF000195,11/10/2019,-121.026511,RWQCB,CA,217,37.578557,Borba &amp; Sons (Formerly PMB Dairy),Dairy,Borba &amp; Sons (Formerly PMB Dairy)
208,-120.959621022872,37.3658176711628,Borba Dairy Farms,,clampToGround,Hilmar,3A1 &amp; 3A2 Enteric Fermentation and Manure Management,DAF000199,11/10/2019,-120.959621,RWQCB,CA,218,37.365818,Borba Dairy Farms,Dairy,Borba Dairy Farms
209,-122.943456182502,38.3160537793297,Bordessa Dairy,,clampToGround,Valley Ford,3A1 &amp; 3A2 Enteric Fermentation and Manure Management,DAF000200,11/10/2019,-122.943456,CIWQS,CA,219,38.316054,Bordessa Dairy,Dairy,Bordessa Dairy
210,-120.920272999799,37.494040000146,Arlinda Holsteins,,clampToGround,Turlock,3A1 &amp; 3A2 Enteric Fermentation and Manure Management,DAF000103,11/10/2019,-120.920273,RWQCB,CA,165,37.49404,Arlinda Holsteins,Dairy,Arlinda Holsteins
211,-121.085926000085,37.5649060000119,Borges Farms,,clampToGround,Modesto,3A1 &amp; 3A2 Enteric Fermentation and Manure Management,DAF000203,11/10/2019,-121.085926,CIWQS R5,CA,221,37.564906,Borges Farms,Dairy,Borges Farms
212,-117.60574070091,34.007838832066,Bosch Dairy,,clampToGround,Ontario,3A1 &amp; 3A2 Enteric Fermentation and Manure Management,DAF000205,11/10/2019,-117.605741,CIWQS,CA,222,34.007839,Bosch Dairy,Dairy,Bosch Dairy
213,-117.607712879405,34.0037691777915,Bosch Dairy #2,,clampToGround,Ontario,3A1 &amp; 3A2 Enteric Fermentation and Manure Management,DAF000206,11/10/2019,-117.607713,CIWQS,CA,223,34.003769,Bosch Dairy #2,Dairy,Bosch Dairy #2
214,-119.530212480268,35.6755294354795,Boschma & Sons Dairy,,clampToGround,Wasco,3A1 &amp; 3A2 Enteric Fermentation and Manure Management,DAF000207,11/10/2019,-119.530212,RWQCB,CA,224,35.675529,Boschma &amp; Sons Dairy,Dairy,Boschma &amp; Sons Dairy
215,-120.90595402838,37.4034901477754,Branco Dairy,,clampToGround,Hilmar,3A1 &amp; 3A2 Enteric Fermentation and Manure Management,DAF000211,11/10/2019,-120.905954,RWQCB,CA,226,37.40349,Branco Dairy,Dairy,Branco Dairy
216,-120.606846891904,37.4076923054545,BRASIL & MACHADO JERSEYS #2,,clampToGround,WINTON,3A1 &amp; 3A2 Enteric Fermentation and Manure Management,DAF000215,11/10/2019,-120.606847,SJAPCD,CA,227,37.407692,BRASIL &amp; MACHADO JERSEYS #2,Dairy,BRASIL &amp; MACHADO JERSEYS #2
217,-121.231649000401,37.7063520000448,Brasil and Machado Dairy,,clampToGround,Manteca,3A1 &amp; 3A2 Enteric Fermentation and Manure Management,DAF000216,11/10/2019,-121.231649,RWQCB,CA,228,37.706352,Brasil and Machado Dairy,Dairy,Brasil and Machado Dairy
218,-121.043232999903,37.8269439997658,Brasil and Sons Dairy No 2,,clampToGround,Escalon,3A1 &amp; 3A2 Enteric Fermentation and Manure Management,DAF000217,11/10/2019,-121.043233,CIWQS R5,CA,229,37.826944,Brasil and Sons Dairy No 2,Dairy,Brasil and Sons Dairy No 2
219,-121.088089,37.877197999688,Brazil/ Van Ryn Dairy Farm LLC,,clampToGround,Stockton,3A1 &amp; 3A2 Enteric Fermentation and Manure Management,DAF000221,11/10/2019,-121.088089,RWQCB,CA,231,37.877198,Brazil/ Van Ryn Dairy Farm LLC,Dairy,Brazil/ Van Ryn Dairy Farm LLC
220,-122.120483439184,39.8277365398555,Brentwood Farms Dairy,,clampToGround,Orland (Capay),3A1 &amp; 3A2 Enteric Fermentation and Manure Management,DAF000222,11/10/2019,-122.120483,CIWQS R5,CA,232,39.827737,Brentwood Farms Dairy,Dairy,Brentwood Farms Dairy
221,-120.887865872217,37.4379193531469,Brindeiro & Danbom Dairy Farms,,clampToGround,Turlock,3A1 &amp; 3A2 Enteric Fermentation and Manure Management,DAF000224,11/10/2019,-120.887866,RWQCB,CA,233,37.437919,Brindeiro &amp; Danbom Dairy Farms,Dairy,Brindeiro &amp; Danbom Dairy Farms
222,-120.886373928453,37.4424454202439,Brindeiro Dairy,,clampToGround,Turlock,3A1 &amp; 3A2 Enteric Fermentation and Manure Management,DAF000225,11/10/2019,-120.886374,CIWQS R5,CA,234,37.442445,Brindeiro Dairy,Dairy,Brindeiro Dairy
223,-117.649397746276,34.0025386680046,Art Venegas Dairy - Euclid,,clampToGround,Ontario,3A1 &amp; 3A2 Enteric Fermentation and Manure Management,DAF000108,11/10/2019,-117.649398,CIWQS,CA,170,34.002539,Art Venegas Dairy - Euclid,Dairy,Art Venegas Dairy - Euclid
224,-124.249605524269,40.6014432476518,Brodt Dairy,,clampToGround,Ferndale,3A1 &amp; 3A2 Enteric Fermentation and Manure Management,DAF000227,11/10/2019,-124.249606,CIWQS,CA,236,40.601443,Brodt Dairy,Dairy,Brodt Dairy
225,-124.261833326298,40.6010323760739,Brodt Dairy #2,,clampToGround,Ferndale,3A1 &amp; 3A2 Enteric Fermentation and Manure Management,DAF000228,11/10/2019,-124.261833,CIWQS,CA,237,40.601032,Brodt Dairy #2,Dairy,Brodt Dairy #2
226,-121.246443142571,38.2211088130066,BROOKS ERMAN RANCH,,clampToGround,GALT,3A1 &amp; 3A2 Enteric Fermentation and Manure Management,DAF000229,11/10/2019,-121.246443,SJAPCD,CA,238,38.221109,BROOKS ERMAN RANCH,Dairy,BROOKS ERMAN RANCH
227,-120.847007707698,37.702850104921,BRUM DE VISSER,,clampToGround,OAKDALE,3A1 &amp; 3A2 Enteric Fermentation and Manure Management,DAF000231,11/10/2019,-120.847008,SJAPCD,CA,239,37.70285,BRUM DE VISSER,Dairy,BRUM DE VISSER
228,-115.741158974108,32.8677065319282,Bullfrog Farms,,clampToGround,Seeley,3A1 &amp; 3A2 Enteric Fermentation and Manure Management,DAF000233,11/10/2019,-115.741159,CIWQS,CA,241,32.867707,Bullfrog Farms,Dairy,Bullfrog Farms
229,-122.79795902983,38.3412242923061,Buttke Dairy,,clampToGround,Sebastopol,3A1 &amp; 3A2 Enteric Fermentation and Manure Management,DAF000234,11/10/2019,-122.797959,CIWQS,CA,242,38.341224,Buttke Dairy,Dairy,Buttke Dairy
230,-124.249287309876,40.6111554773942,"Cahill Organic Dairy - Fulmor Road, Ferndale",,clampToGround,Ferndale,3A1 &amp; 3A2 Enteric Fermentation and Manure Management,DAF000239,11/10/2019,-124.249287,CIWQS,CA,243,40.611155,"Cahill Organic Dairy - Fulmor Road, Ferndale",Dairy,"Cahill Organic Dairy - Fulmor Road, Ferndale"
231,-124.213344655086,40.6011042830208,"Cahill Organic Dairy - Goble Lane, Ferndale",,clampToGround,Ferndale,3A1 &amp; 3A2 Enteric Fermentation and Manure Management,DAF000240,11/10/2019,-124.213345,CIWQS,CA,244,40.601104,"Cahill Organic Dairy - Goble Lane, Ferndale",Dairy,"Cahill Organic Dairy - Goble Lane, Ferndale"
232,-117.078513808357,34.904151128211,B & E Dairy,,clampToGround,Barstow,3A1 &amp; 3A2 Enteric Fermentation and Manure Management,DAF000130,11/10/2019,-117.078514,CIWQS,CA,180,34.904151,B &amp; E Dairy,Dairy,B &amp; E Dairy
233,-121.287139150128,38.3376722899276,Cal-Denier Dairy LLC,,clampToGround,Galt,3A1 &amp; 3A2 Enteric Fermentation and Manure Management,DAF000242,11/10/2019,-121.287139,RWQCB,CA,246,38.337672,Cal-Denier Dairy LLC,Dairy,Cal-Denier Dairy LLC
234,-120.589069962375,37.5146600801103,California Cloverleaf Farm,,clampToGround,Denair,3A1 &amp; 3A2 Enteric Fermentation and Manure Management,DAF000243,11/10/2019,-120.58907,CIWQS R5,CA,247,37.51466,California Cloverleaf Farm,Dairy,California Cloverleaf Farm
235,-120.533777000108,37.4352450002566,Cardoso Dairy,,clampToGround,Winton,3A1 &amp; 3A2 Enteric Fermentation and Manure Management,DAF000249,11/10/2019,-120.533777,RWQCB,CA,248,37.435245,Cardoso Dairy,Dairy,Cardoso Dairy
236,-121.306110999723,38.2391790002107,Cardoso Dairy,,clampToGround,Galt,3A1 &amp; 3A2 Enteric Fermentation and Manure Management,DAF000250,11/10/2019,-121.306111,RWQCB,CA,249,38.239179,Cardoso Dairy,Dairy,Cardoso Dairy
237,-120.944235928963,37.4980828064212,CARL AND LAURIE VIEIRA #2,,clampToGround,TURLOCK,3A1 &amp; 3A2 Enteric Fermentation and Manure Management,DAF000253,11/10/2019,-120.944236,SJAPCD,CA,251,37.498083,CARL AND LAURIE VIEIRA #2,Dairy,CARL AND LAURIE VIEIRA #2
238,-121.096706999928,37.6035850003476,Carl Ott & Sons Dairy,,clampToGround,Modesto,3A1 &amp; 3A2 Enteric Fermentation and Manure Management,DAF000254,11/10/2019,-121.096707,RWQCB,CA,252,37.603585,Carl Ott &amp; Sons Dairy,Dairy,Carl Ott &amp; Sons Dairy
239,-120.938540999567,37.502367000137,CARL VIEIRA DAIRY #1,,clampToGround,TURLOCK,3A1 &amp; 3A2 Enteric Fermentation and Manure Management,DAF000256,11/10/2019,-120.938541,SJAPCD,CA,253,37.502367,CARL VIEIRA DAIRY #1,Dairy,CARL VIEIRA DAIRY #1
240,-119.119032737606,35.1758397276097,CARLOS ECHEVERRIA & SONS DAIRY,,clampToGround,BAKERSFIELD,3A1 &amp; 3A2 Enteric Fermentation and Manure Management,DAF000259,11/10/2019,-119.119033,SJAPCD,CA,254,35.17584,CARLOS ECHEVERRIA &amp; SONS DAIRY,Dairy,CARLOS ECHEVERRIA &amp; SONS DAIRY
241,-119.426517912084,35.7151335383753,Bar DR Dairy,,clampToGround,Wasco,3A1 &amp; 3A2 Enteric Fermentation and Manure Management,DAF000143,11/10/2019,-119.426518,RWQCB,CA,185,35.715134,Bar DR Dairy,Dairy,Bar DR Dairy
242,-120.890308327573,37.4173535535176,CARRANCHO DAIRY,,clampToGround,HILMAR,3A1 &amp; 3A2 Enteric Fermentation and Manure Management,DAF000261,11/10/2019,-120.890308,SJAPCD,CA,256,37.417354,CARRANCHO DAIRY,Dairy,CARRANCHO DAIRY
243,-120.998063999754,37.4729079996046,Carvalho Dairy,,clampToGround,Crows Landing,3A1 &amp; 3A2 Enteric Fermentation and Manure Management,DAF000263,11/10/2019,-120.998064,RWQCB,CA,257,37.472908,Carvalho Dairy,Dairy,Carvalho Dairy
244,-121.321244211863,38.0888432409962,CASTELANELLI BROS,,clampToGround,LODI,3A1 &amp; 3A2 Enteric Fermentation and Manure Management,DAF000267,11/10/2019,-121.321244,SJAPCD,CA,258,38.088843,CASTELANELLI BROS,Dairy,CASTELANELLI BROS
245,-120.914801610964,37.4139009759155,CHARLES AHLEM RANCH,,clampToGround,HILMAR,3A1 &amp; 3A2 Enteric Fermentation and Manure Management,DAF000269,11/10/2019,-120.914802,SJAPCD,CA,259,37.413901,CHARLES AHLEM RANCH,Dairy,CHARLES AHLEM RANCH
246,-120.97873499962,37.5121519999149,Chateau Basque Jerseys,,clampToGround,Ceres,3A1 &amp; 3A2 Enteric Fermentation and Manure Management,DAF000273,11/10/2019,-120.978735,CIWQS R5,CA,261,37.512152,Chateau Basque Jerseys,Dairy,Chateau Basque Jerseys
247,-122.674109999677,38.2082169996149,Chileno Valley Jerseys,,clampToGround,Petaluma,3A1 &amp; 3A2 Enteric Fermentation and Manure Management,DAF000274,11/10/2019,-122.67411,CIWQS,CA,262,38.208217,Chileno Valley Jerseys,Dairy,Chileno Valley Jerseys
248,-117.638637209569,33.9884541274754,Chino Valley Dairy #1,,clampToGround,Ontario,3A1 &amp; 3A2 Enteric Fermentation and Manure Management,DAF000276,11/10/2019,-117.638637,CIWQS,CA,263,33.988454,Chino Valley Dairy #1,Dairy,Chino Valley Dairy #1
249,-117.644314702035,33.9933028863548,Chino Valley Dairy 2,,clampToGround,Ontario,3A1 &amp; 3A2 Enteric Fermentation and Manure Management,DAF000277,11/10/2019,-117.644315,CIWQS,CA,264,33.993303,Chino Valley Dairy 2,Dairy,Chino Valley Dairy 2
250,-117.637667603989,34.0016228429466,Chino Valley Heifer Ranch,,clampToGround,Ontario,3A1 &amp; 3A2 Enteric Fermentation and Manure Management,DAF000278,11/10/2019,-117.637668,CIWQS,CA,265,34.001623,Chino Valley Heifer Ranch,Dairy,Chino Valley Heifer Ranch
251,-117.624027236407,33.9452632040675,Chino-Corona Heifers,,clampToGround,Corona,3A1 &amp; 3A2 Enteric Fermentation and Manure Management,DAF000279,11/10/2019,-117.624027,CIWQS,CA,266,33.945263,Chino-Corona Heifers,Dairy,Chino-Corona Heifers
252,-122.256456000244,39.7353169998797,Chris Verboom Dairy,,clampToGround,Orland,3A1 &amp; 3A2 Enteric Fermentation and Manure Management,DAF000281,11/10/2019,-122.256456,RWQCB,CA,267,39.735317,Chris Verboom Dairy,Dairy,Chris Verboom Dairy
253,-122.586415260212,38.2963622678921,Circle LC Corp.,,clampToGround,Petaluma,3A1 &amp; 3A2 Enteric Fermentation and Manure Management,DAF000283,11/10/2019,-122.586415,CIWQS,CA,268,38.296362,Circle LC Corp.,Dairy,Circle LC Corp.
254,-120.789555999909,37.7072120001338,Claribel Farms,,clampToGround,Oakdale,3A1 &amp; 3A2 Enteric Fermentation and Manure Management,DAF000286,11/10/2019,-120.789556,RWQCB,CA,269,37.707212,Claribel Farms,Dairy,Claribel Farms
255,-121.027708488571,37.530790289678,Clarot Farms Inc.,,clampToGround,Modesto,3A1 &amp; 3A2 Enteric Fermentation and Manure Management,DAF000287,11/10/2019,-121.027708,RWQCB,CA,270,37.53079,Clarot Farms Inc.,Dairy,Clarot Farms Inc.
256,-120.881181599307,37.4052539074427,CLAUSS DAIRY FARMS,,clampToGround,HILMAR,3A1 &amp; 3A2 Enteric Fermentation and Manure Management,DAF000289,11/10/2019,-120.881182,SJAPCD,CA,271,37.405254,CLAUSS DAIRY FARMS,Dairy,CLAUSS DAIRY FARMS
257,-120.887610999948,37.7996619998015,Clinton Dairy,,clampToGround,Oakdale,3A1 &amp; 3A2 Enteric Fermentation and Manure Management,DAF000291,11/10/2019,-120.887611,CIWQS R5,CA,272,37.799662,Clinton Dairy,Dairy,Clinton Dairy
258,-120.89848006511,37.3919057599184,CLOVER PRAIRIE FARMS,,clampToGround,HILMAR,3A1 &amp; 3A2 Enteric Fermentation and Manure Management,DAF000292,11/10/2019,-120.89848,SJAPCD,CA,273,37.391906,CLOVER PRAIRIE FARMS,Dairy,CLOVER PRAIRIE FARMS
259,-120.902678295769,37.4810370981914,CMC LANDHOLDINGS LLC,,clampToGround,TURLOCK,3A1 &amp; 3A2 Enteric Fermentation and Manure Management,DAF000297,11/10/2019,-120.902678,SJAPCD,CA,274,37.481037,CMC LANDHOLDINGS LLC,Dairy,CMC LANDHOLDINGS LLC
260,-120.907145162077,37.6845421990531,Coelho's Clover Dairy,,clampToGround,Modesto,3A1 &amp; 3A2 Enteric Fermentation and Manure Management,DAF000303,11/10/2019,-120.907145,RWQCB,CA,276,37.684542,Coelho's Clover Dairy,Dairy,Coelho's Clover Dairy
261,-124.103713244378,40.9145075752419,Collenberg Dairy,,clampToGround,Arcata,3A1 &amp; 3A2 Enteric Fermentation and Manure Management,DAF000305,11/10/2019,-124.103713,CIWQS,CA,277,40.914508,Collenberg Dairy,Dairy,Collenberg Dairy
262,-124.239307833087,40.58322180126,Coppini Lane Jerseys,,clampToGround,Ferndale,3A1 &amp; 3A2 Enteric Fermentation and Manure Management,DAF000308,11/10/2019,-124.239308,CIWQS,CA,278,40.583222,Coppini Lane Jerseys,Dairy,Coppini Lane Jerseys
263,-122.666941571202,38.279276493299,Corda and Sons Dairy,,clampToGround,Petaluma,3A1 &amp; 3A2 Enteric Fermentation and Manure Management,DAF000309,11/10/2019,-122.666942,CIWQS,CA,279,38.279276,Corda and Sons Dairy,Dairy,Corda and Sons Dairy
264,-122.723011252807,38.2759839989313,Correia Dairy,,clampToGround,Petaluma,3A1 &amp; 3A2 Enteric Fermentation and Manure Management,DAF000311,11/10/2019,-122.723011,CIWQS,CA,280,38.275984,Correia Dairy,Dairy,Correia Dairy
265,-120.967923474927,37.1237909289944,CORREIA FAMILY DAIRY,,clampToGround,GUSTINE,3A1 &amp; 3A2 Enteric Fermentation and Manure Management,DAF000312,11/10/2019,-120.967923,SJAPCD,CA,281,37.123791,CORREIA FAMILY DAIRY,Dairy,CORREIA FAMILY DAIRY
266,-117.017010000111,33.7907099996668,Cottonwood Dairy,,clampToGround,San Jacinto,3A1 &amp; 3A2 Enteric Fermentation and Manure Management,DAF000318,11/10/2019,-117.01701,CIWQS,CA,282,33.79071,Cottonwood Dairy,Dairy,Cottonwood Dairy
267,-121.068076999854,37.5939169996698,Couchman Farms,,clampToGround,Modesto,3A1 &amp; 3A2 Enteric Fermentation and Manure Management,DAF000320,11/10/2019,-121.068077,RWQCB,CA,283,37.593917,Couchman Farms,Dairy,Couchman Farms
268,-120.909232303898,37.4622135160338,Couco Creek Dairy Inc.,,clampToGround,Turlock,3A1 &amp; 3A2 Enteric Fermentation and Manure Management,DAF000321,11/10/2019,-120.909232,RWQCB,CA,284,37.462214,Couco Creek Dairy Inc.,Dairy,Couco Creek Dairy Inc.
269,-120.889902000377,37.7793589997181,Barbara Dykzeul (Formerly River Oak Dairy),,clampToGround,Oakdale,3A1 &amp; 3A2 Enteric Fermentation and Manure Management,DAF000152,11/10/2019,-120.889902,RWQCB,CA,190,37.779359,Barbara Dykzeul (Formerly River Oak Dairy),Dairy,Barbara Dykzeul (Formerly River Oak Dairy)
270,-120.867615345984,37.3861293485219,"Crane Dairy, Inc.",,clampToGround,Hilmar,3A1 &amp; 3A2 Enteric Fermentation and Manure Management,DAF000326,11/10/2019,-120.867615,CIWQS R5,CA,286,37.386129,"Crane Dairy, Inc.",Dairy,"Crane Dairy, Inc."
271,-120.889915694069,37.7377692619369,Crane Villa Dairy,,clampToGround,Oakdale,3A1 &amp; 3A2 Enteric Fermentation and Manure Management,DAF000327,11/10/2019,-120.889916,RWQCB,CA,287,37.737769,Crane Villa Dairy,Dairy,Crane Villa Dairy
272,-122.100265844972,39.6587891990724,Creek Dairy,,clampToGround,Orland,3A1 &amp; 3A2 Enteric Fermentation and Manure Management,DAF000329,11/10/2019,-122.100266,RWQCB,CA,288,39.658789,Creek Dairy,Dairy,Creek Dairy
273,-121.074627120898,37.8266082434791,CREEKSIDE DAIRY,,clampToGround,ESCALON,3A1 &amp; 3A2 Enteric Fermentation and Manure Management,DAF000330,11/10/2019,-121.074627,SJAPCD,CA,289,37.826608,CREEKSIDE DAIRY,Dairy,CREEKSIDE DAIRY
274,-122.104784751479,39.7380504592726,Beglinger Dairy,,clampToGround,Orland,3A1 &amp; 3A2 Enteric Fermentation and Manure Management,DAF000160,11/10/2019,-122.104785,RWQCB,CA,195,39.73805,Beglinger Dairy,Dairy,Beglinger Dairy
275,-120.679660109783,37.4224207510856,CRESSEY RIVER LLC,,clampToGround,LIVINGSTON,3A1 &amp; 3A2 Enteric Fermentation and Manure Management,DAF000333,11/10/2019,-120.67966,SJAPCD,CA,291,37.422421,CRESSEY RIVER LLC,Dairy,CRESSEY RIVER LLC
276,-120.870369775684,37.6980867852139,CROSS A DAIRY,,clampToGround,OAKDALE,3A1 &amp; 3A2 Enteric Fermentation and Manure Management,DAF000334,11/10/2019,-120.87037,SJAPCD,CA,292,37.698087,CROSS A DAIRY,Dairy,CROSS A DAIRY
277,-120.90595402838,37.4034901477754,Cross Creek Dairy,,clampToGround,Hilmar,3A1 &amp; 3A2 Enteric Fermentation and Manure Management,DAF000336,11/10/2019,-120.905954,CIWQS R5,CA,293,37.40349,Cross Creek Dairy,Dairy,Cross Creek Dairy
278,-120.764174359464,37.7344241066416,Cross View Dairy,,clampToGround,Oakdale,3A1 &amp; 3A2 Enteric Fermentation and Manure Management,DAF000337,11/10/2019,-120.764174,RWQCB,CA,294,37.734424,Cross View Dairy,Dairy,Cross View Dairy
279,-122.701064711913,38.4113191833669,Cunningham Dairy,,clampToGround,Santa Rosa,3A1 &amp; 3A2 Enteric Fermentation and Manure Management,DAF000343,11/10/2019,-122.701065,CIWQS,CA,296,38.411319,Cunningham Dairy,Dairy,Cunningham Dairy
280,-119.553749999563,34.8986799998821,Cuyama Dairy,,clampToGround,Maricopa,3A1 &amp; 3A2 Enteric Fermentation and Manure Management,DAF000347,11/10/2019,-119.55375,CIWQS,CA,297,34.89868,Cuyama Dairy,Dairy,Cuyama Dairy
281,-120.964934497174,37.136057313424,D & D HOLSTEINS,,clampToGround,GUSTINE,3A1 &amp; 3A2 Enteric Fermentation and Manure Management,DAF000348,11/10/2019,-120.964934,SJAPCD,CA,298,37.136057,D &amp; D HOLSTEINS,Dairy,D &amp; D HOLSTEINS
282,-120.738480073717,37.5008934756743,D & M AG / DIRK-C HOLSTEINS,,clampToGround,DENAIR,3A1 &amp; 3A2 Enteric Fermentation and Manure Management,DAF000350,11/10/2019,-120.73848,SJAPCD,CA,299,37.500893,D &amp; M AG / DIRK-C HOLSTEINS,Dairy,D &amp; M AG / DIRK-C HOLSTEINS
283,-120.906623093056,37.7008300617129,D BARCELOS DAIRY,,clampToGround,MODESTO,3A1 &amp; 3A2 Enteric Fermentation and Manure Management,DAF000352,11/10/2019,-120.906623,SJAPCD,CA,300,37.70083,D BARCELOS DAIRY,Dairy,D BARCELOS DAIRY
284,-120.962212000284,37.8209809999732,D.J. Caton Dairy,,clampToGround,Escalon,3A1 &amp; 3A2 Enteric Fermentation and Manure Management,DAF000354,11/10/2019,-120.962212,RWQCB,CA,301,37.820981,D.J. Caton Dairy,Dairy,D.J. Caton Dairy
285,-120.790862999927,37.4828929996123,Da Rosa Dairy,,clampToGround,Turlock,3A1 &amp; 3A2 Enteric Fermentation and Manure Management,DAF000356,11/10/2019,-120.790863,CIWQS R5,CA,302,37.482893,Da Rosa Dairy,Dairy,Da Rosa Dairy
286,-121.472121131709,38.3302035054551,Da Silva Dairy,,clampToGround,Elk Grove,3A1 &amp; 3A2 Enteric Fermentation and Manure Management,DAF000357,11/10/2019,-121.472121,CIWQS R5,CA,303,38.330204,Da Silva Dairy,Dairy,Da Silva Dairy
287,-120.98316936894,37.8591522744187,DA SILVA FAMILY DAIRY LLC #1,,clampToGround,ESCALON,3A1 &amp; 3A2 Enteric Fermentation and Manure Management,DAF000359,11/10/2019,-120.983169,SJAPCD,CA,304,37.859152,DA SILVA FAMILY DAIRY LLC #1,Dairy,DA SILVA FAMILY DAIRY LLC #1
288,-121.027041913349,37.8319128589823,Da Silva LP Brennan Road,,clampToGround,Escalon,3A1 &amp; 3A2 Enteric Fermentation and Manure Management,DAF000361,11/10/2019,-121.027042,CIWQS R5,CA,306,37.831913,Da Silva LP Brennan Road,Dairy,Da Silva LP Brennan Road
289,-120.957363999749,37.3841369996229,Dairy Central,,clampToGround,Hilmar,3A1 &amp; 3A2 Enteric Fermentation and Manure Management,DAF000362,11/10/2019,-120.957364,RWQCB,CA,307,37.384137,Dairy Central,Dairy,Dairy Central
290,-120.964294000068,37.4206350001052,Dairy Central Heifers,,clampToGround,Turlock,3A1 &amp; 3A2 Enteric Fermentation and Manure Management,DAF000363,11/10/2019,-120.964294,CIWQS R5,CA,308,37.420635,Dairy Central Heifers,Dairy,Dairy Central Heifers
291,-124.207881337924,40.5661416859368,Darren & Karen Hansen Dairy,,clampToGround,Ferndale,3A1 &amp; 3A2 Enteric Fermentation and Manure Management,DAF000366,11/10/2019,-124.207881,CIWQS,CA,309,40.566142,Darren &amp; Karen Hansen Dairy,Dairy,Darren &amp; Karen Hansen Dairy
292,-120.946745091974,37.4332326210623,DAVE CHAVES DAIRY,,clampToGround,TURLOCK,3A1 &amp; 3A2 Enteric Fermentation and Manure Management,DAF000368,11/10/2019,-120.946745,SJAPCD,CA,311,37.433233,DAVE CHAVES DAIRY,Dairy,DAVE CHAVES DAIRY
293,-118.935497951289,35.2878816267011,David Vander Schaaf Dairy,,clampToGround,Bakersfield,3A1 &amp; 3A2 Enteric Fermentation and Manure Management,DAF000371,11/10/2019,-118.935498,RWQCB,CA,312,35.287882,David Vander Schaaf Dairy,Dairy,David Vander Schaaf Dairy
294,-121.146446000383,37.6374259997102,De Carvalho Bros. Dairy,,clampToGround,Modesto,3A1 &amp; 3A2 Enteric Fermentation and Manure Management,DAF000374,11/10/2019,-121.146446,RWQCB,CA,313,37.637426,De Carvalho Bros. Dairy,Dairy,De Carvalho Bros. Dairy
295,-120.684828999758,37.4967189995822,De Jong Bros Dairy,,clampToGround,Ballico,3A1 &amp; 3A2 Enteric Fermentation and Manure Management,DAF000379,11/10/2019,-120.684829,RWQCB,CA,314,37.496719,De Jong Bros Dairy,Dairy,De Jong Bros Dairy
296,-122.821864000123,38.1005220001902,"Bianchini Inc., Bivalve Dairy",,clampToGround,Point Reyes Station,3A1 &amp; 3A2 Enteric Fermentation and Manure Management,DAF000176,11/10/2019,-122.821864,CIWQS,CA,205,38.100522,"Bianchini Inc., Bivalve Dairy",Dairy,"Bianchini Inc., Bivalve Dairy"
297,-119.27013888893,35.6903354806033,De Vries Dairy #3,,clampToGround,McFarland,3A1 &amp; 3A2 Enteric Fermentation and Manure Management,DAF000384,11/10/2019,-119.270139,RWQCB,CA,316,35.690335,De Vries Dairy #3,Dairy,De Vries Dairy #3
298,-122.802532915393,38.2767244588124,DeBernardi Dairy,,clampToGround,Petaluma,3A1 &amp; 3A2 Enteric Fermentation and Manure Management,DAF000386,11/10/2019,-122.802533,CIWQS,CA,317,38.276724,DeBernardi Dairy,Dairy,DeBernardi Dairy
299,-122.787872346639,38.295445214467,Deer Valley East,,clampToGround,Petaluma,3A1 &amp; 3A2 Enteric Fermentation and Manure Management,DAF000389,11/10/2019,-122.787872,CIWQS,CA,318,38.295445,Deer Valley East,Dairy,Deer Valley East
300,-122.795337320358,38.2974520402385,Deer Valley West,,clampToGround,Petaluma,3A1 &amp; 3A2 Enteric Fermentation and Manure Management,DAF000390,11/10/2019,-122.795337,CIWQS,CA,319,38.297452,Deer Valley West,Dairy,Deer Valley West
301,-120.54815751727,37.3522110043541,BLUE SKY DAIRY,,clampToGround,MERCED,3A1 &amp; 3A2 Enteric Fermentation and Manure Management,DAF000185,11/10/2019,-120.548158,SJAPCD,CA,210,37.352211,BLUE SKY DAIRY,Dairy,BLUE SKY DAIRY
302,-124.226663727328,40.6372154866711,Del Biaggio Dairy #2,,clampToGround,Loleta,3A1 &amp; 3A2 Enteric Fermentation and Manure Management,DAF000395,11/10/2019,-124.226664,CIWQS,CA,321,40.637215,Del Biaggio Dairy #2,Dairy,Del Biaggio Dairy #2
303,-123.705510941439,38.9667786635424,Del Mar Farms,,clampToGround,Manchester,3A1 &amp; 3A2 Enteric Fermentation and Manure Management,DAF000397,11/10/2019,-123.705511,CIWQS,CA,322,38.966779,Del Mar Farms,Dairy,Del Mar Farms
304,-121.434577618487,37.7933118717157,Delta Woods Dairy,,clampToGround,Tracy,3A1 &amp; 3A2 Enteric Fermentation and Manure Management,DAF000406,11/10/2019,-121.434578,RWQCB,CA,323,37.793312,Delta Woods Dairy,Dairy,Delta Woods Dairy
305,-121.317138811134,38.2676054283073,DeMelo Dairy,,clampToGround,Galt,3A1 &amp; 3A2 Enteric Fermentation and Manure Management,DAF000407,11/10/2019,-121.317139,RWQCB,CA,324,38.267605,DeMelo Dairy,Dairy,DeMelo Dairy
306,-117.624913714241,34.0032126303428,Bollema Dairy - Schaefer,,clampToGround,Ontario,3A1 &amp; 3A2 Enteric Fermentation and Manure Management,DAF000192,11/10/2019,-117.624914,CIWQS,CA,215,34.003213,Bollema Dairy - Schaefer,Dairy,Bollema Dairy - Schaefer
307,-120.877781999939,37.668145999938,Denizma Dairy,,clampToGround,Modesto,3A1 &amp; 3A2 Enteric Fermentation and Manure Management,DAF000409,11/10/2019,-120.877782,RWQCB,CA,326,37.668146,Denizma Dairy,Dairy,Denizma Dairy
308,-120.816945086544,37.6978172997141,DESIMAS BAIROS DAIRY,,clampToGround,OAKDALE,3A1 &amp; 3A2 Enteric Fermentation and Manure Management,DAF000412,11/10/2019,-120.816945,SJAPCD,CA,327,37.697817,DESIMAS BAIROS DAIRY,Dairy,DESIMAS BAIROS DAIRY
309,-121.326153000361,37.7384109999677,Deuel Vocational Institute Dairy,,clampToGround,Tracy,3A1 &amp; 3A2 Enteric Fermentation and Manure Management,DAF000414,11/10/2019,-121.326153,CIWQS R5,CA,328,37.738411,Deuel Vocational Institute Dairy,Dairy,Deuel Vocational Institute Dairy
310,-121.239486215399,38.2164444260089,Dewit Dairy,,clampToGround,Acampo,3A1 &amp; 3A2 Enteric Fermentation and Manure Management,DAF000415,11/10/2019,-121.239486,RWQCB,CA,329,38.216444,Dewit Dairy,Dairy,Dewit Dairy
311,-124.14605927831,41.8925721235529,Borges Dairy,,clampToGround,Crescent City,3A1 &amp; 3A2 Enteric Fermentation and Manure Management,DAF000202,11/10/2019,-124.146059,CIWQS,CA,220,41.892572,Borges Dairy,Dairy,Borges Dairy
312,-120.93582600027,37.5163799997995,Diamond B Dairy,,clampToGround,Ceres,3A1 &amp; 3A2 Enteric Fermentation and Manure Management,DAF000418,11/10/2019,-120.935826,CIWQS R5,CA,331,37.51638,Diamond B Dairy,Dairy,Diamond B Dairy
313,-121.096107511438,37.5984212829141,Diamond O Dairy,,clampToGround,Modesto,3A1 &amp; 3A2 Enteric Fermentation and Manure Management,DAF000421,11/10/2019,-121.096108,RWQCB,CA,332,37.598421,Diamond O Dairy,Dairy,Diamond O Dairy
314,-124.188645995367,40.5844835053148,Diamond Point Dairy,,clampToGround,Ferndale,3A1 &amp; 3A2 Enteric Fermentation and Manure Management,DAF000422,11/10/2019,-124.188646,CIWQS,CA,333,40.584484,Diamond Point Dairy,Dairy,Diamond Point Dairy
315,-124.174041676282,40.5238163494836,Diamond R Ranch,,clampToGround,Ferndale,3A1 &amp; 3A2 Enteric Fermentation and Manure Management,DAF000423,11/10/2019,-124.174042,CIWQS,CA,334,40.523816,Diamond R Ranch,Dairy,Diamond R Ranch
316,-117.722252443249,33.9953519620609,Boys Republic Farm,,clampToGround,Chino Hills,3A1 &amp; 3A2 Enteric Fermentation and Manure Management,DAF000210,11/10/2019,-117.722252,CIWQS,CA,225,33.995352,Boys Republic Farm,Dairy,Boys Republic Farm
317,-122.824888378962,38.3021442945288,Diamond W Ranch,,clampToGround,Petaluma,3A1 &amp; 3A2 Enteric Fermentation and Manure Management,DAF000425,11/10/2019,-122.824888,CIWQS,CA,336,38.302144,Diamond W Ranch,Dairy,Diamond W Ranch
318,-117.025161091864,33.7845661562345,Dick Van Dam Dairy,,clampToGround,San Jacinto,3A1 &amp; 3A2 Enteric Fermentation and Manure Management,DAF000428,11/10/2019,-117.025161,CIWQS,CA,337,33.784566,Dick Van Dam Dairy,Dairy,Dick Van Dam Dairy
319,-120.864925999735,37.4267539998972,Diniz Dairy,,clampToGround,Hilmar,3A1 &amp; 3A2 Enteric Fermentation and Manure Management,DAF000430,11/10/2019,-120.864926,RWQCB,CA,338,37.426754,Diniz Dairy,Dairy,Diniz Dairy
320,-122.723418139528,38.1035158668657,Dolcini Jersey Dairy,,clampToGround,Nicasio,3A1 &amp; 3A2 Enteric Fermentation and Manure Management,DAF000435,11/10/2019,-122.723418,CIWQS,CA,339,38.103516,Dolcini Jersey Dairy,Dairy,Dolcini Jersey Dairy
321,-121.073838710341,37.8280009034187,DOORNENBAL DAIRY #1 & 3,,clampToGround,ESCALON,3A1 &amp; 3A2 Enteric Fermentation and Manure Management,DAF000438,11/10/2019,-121.073839,SJAPCD,CA,341,37.828001,DOORNENBAL DAIRY #1 &amp; 3,Dairy,DOORNENBAL DAIRY #1 &amp; 3
322,-121.078108699421,37.8289771099302,Doornenbal Dairy #3,,clampToGround,Escalon,3A1 &amp; 3A2 Enteric Fermentation and Manure Management,DAF000439,11/10/2019,-121.078109,CIWQS R5,CA,342,37.828977,Doornenbal Dairy #3,Dairy,Doornenbal Dairy #3
323,-120.790394999929,37.7249220002502,Dotinga Dairy,,clampToGround,Oakdale,3A1 &amp; 3A2 Enteric Fermentation and Manure Management,DAF000441,11/10/2019,-120.790395,RWQCB,CA,343,37.724922,Dotinga Dairy,Dairy,Dotinga Dairy
324,-122.788538542054,38.4168061049965,Dotti Brothers Dairy,,clampToGround,Santa Rosa,3A1 &amp; 3A2 Enteric Fermentation and Manure Management,DAF000442,11/10/2019,-122.788539,CIWQS,CA,344,38.416806,Dotti Brothers Dairy,Dairy,Dotti Brothers Dairy
325,-122.745500616178,38.2385020028988,Brazil Dairy,,clampToGround,Petaluma,3A1 &amp; 3A2 Enteric Fermentation and Manure Management,DAF000220,11/10/2019,-122.745501,CIWQS,CA,230,38.238502,Brazil Dairy,Dairy,Brazil Dairy
326,-120.820145000391,37.4504089998755,Double Cross #3,,clampToGround,Turlock,3A1 &amp; 3A2 Enteric Fermentation and Manure Management,DAF000448,11/10/2019,-120.820145,CIWQS R5,CA,346,37.450409,Double Cross #3,Dairy,Double Cross #3
327,-120.957864754737,37.4366420893046,Double Cross #4,,clampToGround,Turlock,3A1 &amp; 3A2 Enteric Fermentation and Manure Management,DAF000449,11/10/2019,-120.957865,CIWQS R5,CA,347,37.436642,Double Cross #4,Dairy,Double Cross #4
328,-120.960059999969,37.4276560001244,Double Cross Dairy,,clampToGround,Turlock,3A1 &amp; 3A2 Enteric Fermentation and Manure Management,DAF000450,11/10/2019,-120.96006,CIWQS R5,CA,348,37.427656,Double Cross Dairy,Dairy,Double Cross Dairy
329,-120.953754471591,37.5271424483721,Double D Dairy,,clampToGround,Ceres,3A1 &amp; 3A2 Enteric Fermentation and Manure Management,DAF000451,11/10/2019,-120.953754,RWQCB,CA,349,37.527142,Double D Dairy,Dairy,Double D Dairy
330,-120.88881506547,37.4184845071909,Broder Farms,,clampToGround,Hilmar,3A1 &amp; 3A2 Enteric Fermentation and Manure Management,DAF000226,11/10/2019,-120.888815,CIWQS R5,CA,235,37.418485,Broder Farms,Dairy,Broder Farms
331,-121.446109999577,38.3639690001693,Double D Dairy #2,,clampToGround,Elk Grove,3A1 &amp; 3A2 Enteric Fermentation and Manure Management,DAF000455,11/10/2019,-121.44611,RWQCB,CA,351,38.363969,Double D Dairy #2,Dairy,Double D Dairy #2
332,-120.7743068843,37.4757022323679,Double Dutch Dairy,,clampToGround,Turlock,3A1 &amp; 3A2 Enteric Fermentation and Manure Management,DAF000458,11/10/2019,-120.774307,CIWQS R5,CA,352,37.475702,Double Dutch Dairy,Dairy,Double Dutch Dairy
333,-121.742304745078,38.4646097452759,Double G Dairy,,clampToGround,Dixon,3A1 &amp; 3A2 Enteric Fermentation and Manure Management,DAF000459,11/10/2019,-121.742305,RWQCB,CA,353,38.46461,Double G Dairy,Dairy,Double G Dairy
334,-120.828216000268,37.4544609996755,Double G Jersey Dairy,,clampToGround,Turlock,3A1 &amp; 3A2 Enteric Fermentation and Manure Management,DAF000460,11/10/2019,-120.828216,RWQCB,CA,354,37.454461,Double G Jersey Dairy,Dairy,Double G Jersey Dairy
335,-122.875339108063,38.547146837588,Bucher Farms,,clampToGround,Healdsburg,3A1 &amp; 3A2 Enteric Fermentation and Manure Management,DAF000232,11/10/2019,-122.875339,CIWQS,CA,240,38.547147,Bucher Farms,Dairy,Bucher Farms
336,-122.693839113184,38.0831868018311,Doug Ielmorini Dairy,,clampToGround,Nicasio,3A1 &amp; 3A2 Enteric Fermentation and Manure Management,DAF000467,11/10/2019,-122.693839,CIWQS,CA,356,38.083187,Doug Ielmorini Dairy,Dairy,Doug Ielmorini Dairy
337,-121.008742000243,37.830681000328,DS Farms LP,,clampToGround,Escalon,3A1 &amp; 3A2 Enteric Fermentation and Manure Management,DAF000471,11/10/2019,-121.008742,CIWQS R5,CA,357,37.830681,DS Farms LP,Dairy,DS Farms LP
338,-120.924213909842,37.5138073364295,Duarte Acres Holsteins,,clampToGround,Ceres,3A1 &amp; 3A2 Enteric Fermentation and Manure Management,DAF000472,11/10/2019,-120.924214,RWQCB,CA,358,37.513807,Duarte Acres Holsteins,Dairy,Duarte Acres Holsteins
339,-121.415050044418,38.3282430312217,Duarte Family Dairy,,clampToGround,Elk Grove,3A1 &amp; 3A2 Enteric Fermentation and Manure Management,DAF000473,11/10/2019,-121.41505,RWQCB,CA,359,38.328243,Duarte Family Dairy,Dairy,Duarte Family Dairy
340,-120.659620000063,35.3038599996393,Cal Poly CampusWide WQ Plan,,clampToGround,San Luis Obispo,3A1 &amp; 3A2 Enteric Fermentation and Manure Management,DAF000241,11/10/2019,-120.65962,CIWQS,CA,245,35.30386,Cal Poly CampusWide WQ Plan,Dairy,Cal Poly CampusWide WQ Plan
341,-122.817785418904,38.2256378139131,Duncan Dairy,,clampToGround,Petaluma,3A1 &amp; 3A2 Enteric Fermentation and Manure Management,DAF000475,11/10/2019,-122.817785,CIWQS,CA,361,38.225638,Duncan Dairy,Dairy,Duncan Dairy
342,-121.157553387908,37.6830849977686,Durrer Dairy,,clampToGround,Modesto,3A1 &amp; 3A2 Enteric Fermentation and Manure Management,DAF000476,11/10/2019,-121.157553,RWQCB,CA,362,37.683085,Durrer Dairy,Dairy,Durrer Dairy
343,-117.288322176802,34.7872845405831,Dutch Dairy,,clampToGround,Helendale,3A1 &amp; 3A2 Enteric Fermentation and Manure Management,DAF000477,11/10/2019,-117.288322,CIWQS,CA,363,34.787285,Dutch Dairy,Dairy,Dutch Dairy
344,-121.241858462513,37.7362813274212,"Dutra Farms, Inc.",,clampToGround,Manteca,3A1 &amp; 3A2 Enteric Fermentation and Manure Management,DAF000481,11/10/2019,-121.241858,RWQCB,CA,364,37.736281,"Dutra Farms, Inc.",Dairy,"Dutra Farms, Inc."
345,-122.761642103705,38.3510001337879,Carinalli Dairy,,clampToGround,Sebastopol,3A1 &amp; 3A2 Enteric Fermentation and Manure Management,DAF000252,11/10/2019,-122.761642,CIWQS,CA,250,38.351,Carinalli Dairy,Dairy,Carinalli Dairy
346,-117.608377413212,33.9993229860973,Dyt Heifer Ranch,,clampToGround,Ontario,3A1 &amp; 3A2 Enteric Fermentation and Manure Management,DAF000484,11/10/2019,-117.608377,CIWQS,CA,366,33.999323,Dyt Heifer Ranch,Dairy,Dyt Heifer Ranch
347,-121.40125656847,38.1450478484756,"E. Luiz and Sons Dairy, Inc",,clampToGround,Lodi,3A1 &amp; 3A2 Enteric Fermentation and Manure Management,DAF000487,11/10/2019,-121.401257,RWQCB,CA,367,38.145048,"E. Luiz and Sons Dairy, Inc",Dairy,"E. Luiz and Sons Dairy, Inc"
348,-121.055835000085,37.8717910003544,E.R. Prins Dairies #1 and #2,,clampToGround,Stockton,3A1 &amp; 3A2 Enteric Fermentation and Manure Management,DAF000488,11/10/2019,-121.055835,RWQCB,CA,368,37.871791,E.R. Prins Dairies #1 and #2,Dairy,E.R. Prins Dairies #1 and #2
349,-120.968244355083,37.4709474746089,ED HIRDES,,clampToGround,TURLOCK,3A1 &amp; 3A2 Enteric Fermentation and Manure Management,DAF000492,11/10/2019,-120.968244,SJAPCD,CA,369,37.470947,ED HIRDES,Dairy,ED HIRDES
350,-121.450018999977,38.365710999563,Carmo Dairy,,clampToGround,Elk Grove,3A1 &amp; 3A2 Enteric Fermentation and Manure Management,DAF000260,11/10/2019,-121.450019,CIWQS R5,CA,255,38.365711,Carmo Dairy,Dairy,Carmo Dairy
351,-121.15310900008,37.5754790001558,Ed Machado Dairy #1,,clampToGround,Modesto,3A1 &amp; 3A2 Enteric Fermentation and Manure Management,DAF000495,11/10/2019,-121.153109,RWQCB,CA,371,37.575479,Ed Machado Dairy #1,Dairy,Ed Machado Dairy #1
352,-122.211569999656,39.7851389996652,Ed Pinheiro Dairy,,clampToGround,Orland,3A1 &amp; 3A2 Enteric Fermentation and Manure Management,DAF000497,11/10/2019,-122.21157,RWQCB,CA,372,39.785139,Ed Pinheiro Dairy,Dairy,Ed Pinheiro Dairy
353,-117.02481144495,33.8250729350735,Ed Vander Woude Dairy,,clampToGround,San Jacinto,3A1 &amp; 3A2 Enteric Fermentation and Manure Management,DAF000499,11/10/2019,-117.024811,CIWQS,CA,373,33.825073,Ed Vander Woude Dairy,Dairy,Ed Vander Woude Dairy
354,-121.033708000424,37.5070480001651,Edelweiss Dairy,,clampToGround,Crows Landing,3A1 &amp; 3A2 Enteric Fermentation and Manure Management,DAF000500,11/10/2019,-121.033708,RWQCB,CA,374,37.507048,Edelweiss Dairy,Dairy,Edelweiss Dairy
355,-122.885733550287,41.5591901038113,Charles D. Martin Dairy,,clampToGround,Fort Jones,3A1 &amp; 3A2 Enteric Fermentation and Manure Management,DAF000270,11/10/2019,-122.885734,CIWQS,CA,260,41.55919,Charles D. Martin Dairy,Dairy,Charles D. Martin Dairy
356,-121.096747472701,37.8435271798145,EDWARD NUNES,,clampToGround,ESCALON,3A1 &amp; 3A2 Enteric Fermentation and Manure Management,DAF000503,11/10/2019,-121.096747,SJAPCD,CA,376,37.843527,EDWARD NUNES,Dairy,EDWARD NUNES
357,-120.81774799957,37.5377159997936,EDWIN H. SMITH & SONS,,clampToGround,DENAIR,3A1 &amp; 3A2 Enteric Fermentation and Manure Management,DAF000505,11/10/2019,-120.817748,SJAPCD,CA,377,37.537716,EDWIN H. SMITH &amp; SONS,Dairy,EDWIN H. SMITH &amp; SONS
358,-120.915424000117,37.434744999682,Ehrlich Dairy,,clampToGround,Turlock,3A1 &amp; 3A2 Enteric Fermentation and Manure Management,DAF000506,11/10/2019,-120.915424,CIWQS R5,CA,378,37.434745,Ehrlich Dairy,Dairy,Ehrlich Dairy
359,-117.638867973478,34.0081260701794,El Dorado Dairy,,clampToGround,Ontario,3A1 &amp; 3A2 Enteric Fermentation and Manure Management,DAF000507,11/10/2019,-117.638868,CIWQS,CA,379,34.008126,El Dorado Dairy,Dairy,El Dorado Dairy
360,-120.987813670919,37.5115524007785,EL KATRINA DAIRY,,clampToGround,CERES,3A1 &amp; 3A2 Enteric Fermentation and Manure Management,DAF000510,11/10/2019,-120.987814,SJAPCD,CA,381,37.511552,EL KATRINA DAIRY,Dairy,EL KATRINA DAIRY
361,-121.182235999692,38.3066679999283,Ernie Moules Dairy,,clampToGround,Herald,3A1 &amp; 3A2 Enteric Fermentation and Manure Management,DAF000519,11/10/2019,-121.182236,RWQCB,CA,382,38.306668,Ernie Moules Dairy,Dairy,Ernie Moules Dairy
362,-120.95665200019,37.4415040002095,Estacio & Sons Dairy LP,,clampToGround,Turlock,3A1 &amp; 3A2 Enteric Fermentation and Manure Management,DAF000520,11/10/2019,-120.956652,RWQCB,CA,383,37.441504,Estacio &amp; Sons Dairy LP,Dairy,Estacio &amp; Sons Dairy LP
363,-120.687992999977,37.3728279997125,Eugenio Azevedo Dairy #2,,clampToGround,Livingston,3A1 &amp; 3A2 Enteric Fermentation and Manure Management,DAF000522,11/10/2019,-120.687993,CIWQS R5,CA,384,37.372828,Eugenio Azevedo Dairy #2,Dairy,Eugenio Azevedo Dairy #2
364,-120.895682999871,37.4788219998355,CMC Landholdings LLC #2,,clampToGround,Turlock,3A1 &amp; 3A2 Enteric Fermentation and Manure Management,DAF000298,11/10/2019,-120.895683,CIWQS R5,CA,275,37.478822,CMC Landholdings LLC #2,Dairy,CMC Landholdings LLC #2
365,-119.26965199964,35.6830899997038,F & J Delano #2,,clampToGround,McFarland,3A1 &amp; 3A2 Enteric Fermentation and Manure Management,DAF000528,11/10/2019,-119.269652,RWQCB,CA,386,35.68309,F &amp; J Delano #2,Dairy,F &amp; J Delano #2
366,-120.844884931752,37.6562933559522,F & M AREIAS DAIRY,,clampToGround,MODESTO,3A1 &amp; 3A2 Enteric Fermentation and Manure Management,DAF000530,11/10/2019,-120.844885,SJAPCD,CA,387,37.656293,F &amp; M AREIAS DAIRY,Dairy,F &amp; M AREIAS DAIRY
367,-120.74483318295,37.4899586692934,F&A Lemos,,clampToGround,Turlock,3A1 &amp; 3A2 Enteric Fermentation and Manure Management,DAF000531,11/10/2019,-120.744833,RWQCB,CA,388,37.489959,F&amp;A Lemos,Dairy,F&amp;A Lemos
368,-120.517372686,37.4979715877915,Fagundes Bros. Dairy #1,,clampToGround,Snelling,3A1 &amp; 3A2 Enteric Fermentation and Manure Management,DAF000536,11/10/2019,-120.517373,RWQCB,CA,389,37.497972,Fagundes Bros. Dairy #1,Dairy,Fagundes Bros. Dairy #1
369,-122.120324999799,39.5375919999709,Couto Dairy,,clampToGround,Willows,3A1 &amp; 3A2 Enteric Fermentation and Manure Management,DAF000324,11/10/2019,-122.120325,CIWQS R5,CA,285,39.537592,Couto Dairy,Dairy,Couto Dairy
370,-120.527693566546,37.4953828580737,Fagundes Bros. Dairy #3,,clampToGround,Snelling,3A1 &amp; 3A2 Enteric Fermentation and Manure Management,DAF000538,11/10/2019,-120.527694,RWQCB,CA,391,37.495383,Fagundes Bros. Dairy #3,Dairy,Fagundes Bros. Dairy #3
371,-119.372181000053,35.4732689995647,Faial Farms 2,,clampToGround,Shafter,3A1 &amp; 3A2 Enteric Fermentation and Manure Management,DAF000540,11/10/2019,-119.372181,RWQCB,CA,392,35.473269,Faial Farms 2,Dairy,Faial Farms 2
372,-119.055254748878,35.2283733368892,Faial Farms Dairy,,clampToGround,Bakersfield,3A1 &amp; 3A2 Enteric Fermentation and Manure Management,DAF000541,11/10/2019,-119.055255,RWQCB,CA,393,35.228373,Faial Farms Dairy,Dairy,Faial Farms Dairy
373,-117.624533123549,33.9588449431443,Falloncrest Farms,,clampToGround,Chino,3A1 &amp; 3A2 Enteric Fermentation and Manure Management,DAF000543,11/10/2019,-117.624533,CIWQS,CA,394,33.958845,Falloncrest Farms,Dairy,Falloncrest Farms
374,-122.218794000043,39.6926239996979,Creekside Farms,,clampToGround,Orland,3A1 &amp; 3A2 Enteric Fermentation and Manure Management,DAF000332,11/10/2019,-122.218794,RWQCB,CA,290,39.692624,Creekside Farms,Dairy,Creekside Farms
375,-121.213995000169,38.2035209997944,Faria Dairy,,clampToGround,Acampo,3A1 &amp; 3A2 Enteric Fermentation and Manure Management,DAF000546,11/10/2019,-121.213995,CIWQS R5,CA,396,38.203521,Faria Dairy,Dairy,Faria Dairy
376,-121.062090485149,37.8439400342191,FARIA DAIRY INC #1,,clampToGround,ESCALON,3A1 &amp; 3A2 Enteric Fermentation and Manure Management,DAF000547,11/10/2019,-121.06209,SJAPCD,CA,397,37.84394,FARIA DAIRY INC #1,Dairy,FARIA DAIRY INC #1
377,-121.055037000157,37.8608409999123,Faria Dairy Inc. #3,,clampToGround,Escalon,3A1 &amp; 3A2 Enteric Fermentation and Manure Management,DAF000548,11/10/2019,-121.055037,RWQCB,CA,398,37.860841,Faria Dairy Inc. #3,Dairy,Faria Dairy Inc. #3
378,-120.905736000316,37.4291620003261,Faustino Dairy,,clampToGround,Hilmar,3A1 &amp; 3A2 Enteric Fermentation and Manure Management,DAF000551,11/10/2019,-120.905736,RWQCB,CA,399,37.429162,Faustino Dairy,Dairy,Faustino Dairy
379,-121.824827000266,39.6912239998877,CSU Chico Dairy Facility,,clampToGround,Chico,3A1 &amp; 3A2 Enteric Fermentation and Manure Management,DAF000340,11/10/2019,-121.824827,CIWQS R5,CA,295,39.691224,CSU Chico Dairy Facility,Dairy,CSU Chico Dairy Facility
380,-124.212225646945,40.6192303317789,Fern Vallee Farms,,clampToGround,Fortuna,3A1 &amp; 3A2 Enteric Fermentation and Manure Management,DAF000555,11/10/2019,-124.212226,CIWQS,CA,401,40.61923,Fern Vallee Farms,Dairy,Fern Vallee Farms
381,-122.193777000208,40.1349340003039,Ferreira and Son Dairy,,clampToGround,Red Bluff,3A1 &amp; 3A2 Enteric Fermentation and Manure Management,DAF000560,11/10/2019,-122.193777,RWQCB,CA,402,40.134934,Ferreira and Son Dairy,Dairy,Ferreira and Son Dairy
382,-124.118822320691,40.8980756046504,Ferreira Dairy,,clampToGround,Arcata,3A1 &amp; 3A2 Enteric Fermentation and Manure Management,DAF000561,11/10/2019,-124.118822,CIWQS,CA,403,40.898076,Ferreira Dairy,Dairy,Ferreira Dairy
383,-120.780138804908,37.4771577572876,Fiorini Dairy,,clampToGround,Turlock,3A1 &amp; 3A2 Enteric Fermentation and Manure Management,DAF000562,11/10/2019,-120.780139,RWQCB,CA,404,37.477158,Fiorini Dairy,Dairy,Fiorini Dairy
384,-120.979636999848,37.450018999877,Fire-Lake Jerseys,,clampToGround,Turlock,3A1 &amp; 3A2 Enteric Fermentation and Manure Management,DAF000563,11/10/2019,-120.979637,RWQCB,CA,405,37.450019,Fire-Lake Jerseys,Dairy,Fire-Lake Jerseys
385,-121.129676137728,37.7087874574614,FISCALINI FARMS & FISCALINI DAIRY,,clampToGround,MODESTO,3A1 &amp; 3A2 Enteric Fermentation and Manure Management,DAF000565,11/10/2019,-121.129676,SJAPCD,CA,406,37.708787,FISCALINI FARMS &amp; FISCALINI DAIRY,Dairy,FISCALINI FARMS &amp; FISCALINI DAIRY
386,-121.388417000144,37.7701599999841,FIVE STAR DAIRY,,clampToGround,TRACY,3A1 &amp; 3A2 Enteric Fermentation and Manure Management,DAF000569,11/10/2019,-121.388417,SJAPCD,CA,407,37.77016,FIVE STAR DAIRY,Dairy,FIVE STAR DAIRY
387,-120.518568000213,37.4525669995674,Flores Dairy,,clampToGround,Winton,3A1 &amp; 3A2 Enteric Fermentation and Manure Management,DAF000575,11/10/2019,-120.518568,CIWQS R5,CA,408,37.452567,Flores Dairy,Dairy,Flores Dairy
388,-120.977680000432,37.0936849998629,Forebay Farms,,clampToGround,Gustine,3A1 &amp; 3A2 Enteric Fermentation and Manure Management,DAF000584,11/10/2019,-120.97768,RWQCB,CA,409,37.093685,Forebay Farms,Dairy,Forebay Farms
389,-120.736237999884,37.6071310001956,Foster Dairy Farms #2,,clampToGround,Hickman,3A1 &amp; 3A2 Enteric Fermentation and Manure Management,DAF000589,11/10/2019,-120.736238,CIWQS R5,CA,411,37.607131,Foster Dairy Farms #2,Dairy,Foster Dairy Farms #2
390,-120.758369234914,37.6038148674638,FOSTER DAIRY FARMS #3,,clampToGround,HICKMAN,3A1 &amp; 3A2 Enteric Fermentation and Manure Management,DAF000590,11/10/2019,-120.758369,SJAPCD,CA,412,37.603815,FOSTER DAIRY FARMS #3,Dairy,FOSTER DAIRY FARMS #3
391,-120.752562793928,37.5800381281212,Foster Farms #4,,clampToGround,Hickman,3A1 &amp; 3A2 Enteric Fermentation and Manure Management,DAF000591,11/10/2019,-120.752563,RWQCB,CA,413,37.580038,Foster Farms #4,Dairy,Foster Farms #4
392,-120.735078299824,37.6078225096012,FOSTER FARMS CALF FARM,,clampToGround,HICKMAN,3A1 &amp; 3A2 Enteric Fermentation and Manure Management,DAF000592,11/10/2019,-120.735078,SJAPCD,CA,414,37.607823,FOSTER FARMS CALF FARM,Dairy,FOSTER FARMS CALF FARM
393,-120.753826349902,37.5731123473122,FOSTER FARMS DAIRY #5,,clampToGround,DENAIR,3A1 &amp; 3A2 Enteric Fermentation and Manure Management,DAF000593,11/10/2019,-120.753826,SJAPCD,CA,415,37.573112,FOSTER FARMS DAIRY #5,Dairy,FOSTER FARMS DAIRY #5
394,-120.778220833222,37.5234301106906,Foster Farm's Dairy No. 6,,clampToGround,Denair,3A1 &amp; 3A2 Enteric Fermentation and Manure Management,DAF000594,11/10/2019,-120.778221,RWQCB,CA,416,37.52343,Foster Farm's Dairy No. 6,Dairy,Foster Farm's Dairy No. 6
395,-121.016873087848,37.8354978743973,Fragoso Dairy,,clampToGround,Escalon,3A1 &amp; 3A2 Enteric Fermentation and Manure Management,DAF000601,11/10/2019,-121.016873,RWQCB,CA,417,37.835498,Fragoso Dairy,Dairy,Fragoso Dairy
396,-121.016479,37.8297470004238,Fragoso Dairy #2,,clampToGround,Escalon,3A1 &amp; 3A2 Enteric Fermentation and Manure Management,DAF000602,11/10/2019,-121.016479,RWQCB,CA,418,37.829747,Fragoso Dairy #2,Dairy,Fragoso Dairy #2
397,-121.014869000404,37.8376299997247,Fragoso Dairy #3,,clampToGround,Escalon,3A1 &amp; 3A2 Enteric Fermentation and Manure Management,DAF000603,11/10/2019,-121.014869,RWQCB,CA,419,37.83763,Fragoso Dairy #3,Dairy,Fragoso Dairy #3
398,-121.002233380676,37.8586197979441,FRANK & CAROL BORBA DAIRY,,clampToGround,ESCALON,3A1 &amp; 3A2 Enteric Fermentation and Manure Management,DAF000608,11/10/2019,-121.002233,SJAPCD,CA,421,37.85862,FRANK &amp; CAROL BORBA DAIRY,Dairy,FRANK &amp; CAROL BORBA DAIRY
399,-121.049136999673,37.2089870002499,Frank Azevedo Dairy,,clampToGround,Gustine,3A1 &amp; 3A2 Enteric Fermentation and Manure Management,DAF000610,11/10/2019,-121.049137,CIWQS R5,CA,422,37.208987,Frank Azevedo Dairy,Dairy,Frank Azevedo Dairy
400,-121.156148999976,38.1011620000263,Frank Chaves and Sons #1,,clampToGround,Lodi,3A1 &amp; 3A2 Enteric Fermentation and Manure Management,DAF000613,11/10/2019,-121.156149,RWQCB,CA,423,38.101162,Frank Chaves and Sons #1,Dairy,Frank Chaves and Sons #1
401,-121.168299,38.1034209998793,Frank Chaves and Sons #2,,clampToGround,Lodi,3A1 &amp; 3A2 Enteric Fermentation and Manure Management,DAF000614,11/10/2019,-121.168299,RWQCB,CA,424,38.103421,Frank Chaves and Sons #2,Dairy,Frank Chaves and Sons #2
402,-121.203001000396,37.727372999964,Frank J Borges Dairy,,clampToGround,Manteca,3A1 &amp; 3A2 Enteric Fermentation and Manure Management,DAF000618,11/10/2019,-121.203001,RWQCB,CA,426,37.727373,Frank J Borges Dairy,Dairy,Frank J Borges Dairy
403,-120.959131000295,37.5158090003851,Frank J. Bettencourt & Sons,,clampToGround,Ceres,3A1 &amp; 3A2 Enteric Fermentation and Manure Management,DAF000619,11/10/2019,-120.959131,RWQCB,CA,427,37.515809,Frank J. Bettencourt &amp; Sons,Dairy,Frank J. Bettencourt &amp; Sons
404,-122.258294784494,39.7386104919717,Frank J. Borges Dairy North,,clampToGround,Orland,3A1 &amp; 3A2 Enteric Fermentation and Manure Management,DAF000620,11/10/2019,-122.258295,CIWQS R5,CA,428,39.73861,Frank J. Borges Dairy North,Dairy,Frank J. Borges Dairy North
405,-116.998789999859,33.0879099996468,Frank Konyn Dairy,,clampToGround,Escondido,3A1 &amp; 3A2 Enteric Fermentation and Manure Management,DAF000621,11/10/2019,-116.99879,CIWQS,CA,429,33.08791,Frank Konyn Dairy,Dairy,Frank Konyn Dairy
406,-121.016898999589,37.837834000139,Frank Rocha Dairy #2,,clampToGround,Escalon,3A1 &amp; 3A2 Enteric Fermentation and Manure Management,DAF000625,11/10/2019,-121.016899,RWQCB,CA,431,37.837834,Frank Rocha Dairy #2,Dairy,Frank Rocha Dairy #2
407,-117.649286181274,33.9602962547589,Frank Souza Dairy - Euclid,,clampToGround,Chino,3A1 &amp; 3A2 Enteric Fermentation and Manure Management,DAF000627,11/10/2019,-117.649286,CIWQS,CA,432,33.960296,Frank Souza Dairy - Euclid,Dairy,Frank Souza Dairy - Euclid
408,-121.240313870423,37.7059779414595,FRANK TEICHEIRA & SON,,clampToGround,MANTECA,3A1 &amp; 3A2 Enteric Fermentation and Manure Management,DAF000628,11/10/2019,-121.240314,SJAPCD,CA,433,37.705978,FRANK TEICHEIRA &amp; SON,Dairy,FRANK TEICHEIRA &amp; SON
409,-121.293717880714,37.6964286905097,FRED A DOUMA DAIRY PARTNERSHIP,,clampToGround,TRACY,3A1 &amp; 3A2 Enteric Fermentation and Manure Management,DAF000630,11/10/2019,-121.293718,SJAPCD,CA,434,37.696429,FRED A DOUMA DAIRY PARTNERSHIP,Dairy,FRED A DOUMA DAIRY PARTNERSHIP
410,-121.012535999837,37.8431600002339,DA SILVA FAMILY DAIRY LLC #2/3,,clampToGround,ESCALON,3A1 &amp; 3A2 Enteric Fermentation and Manure Management,DAF000360,11/10/2019,-121.012536,SJAPCD,CA,305,37.84316,DA SILVA FAMILY DAIRY LLC #2/3,Dairy,DA SILVA FAMILY DAIRY LLC #2/3
411,-121.056893000312,37.610781000343,Furtado Farms Inc,,clampToGround,Modesto,3A1 &amp; 3A2 Enteric Fermentation and Manure Management,DAF000635,11/10/2019,-121.056893,RWQCB,CA,436,37.610781,Furtado Farms Inc,Dairy,Furtado Farms Inc
412,-121.031808000039,37.8062670004218,G & H Dairy,,clampToGround,Escalon,3A1 &amp; 3A2 Enteric Fermentation and Manure Management,DAF000637,11/10/2019,-121.031808,RWQCB,CA,437,37.806267,G &amp; H Dairy,Dairy,G &amp; H Dairy
